Id,address,cluster,end-time,job-id,latitude,longitude,name,quantity,required-skills,service-duration,start-time,type,priority,Level,raw-id,day
181.0_0_B1,109 AVE-65 ST,,5.0d 14:45:00,,53.5572473,-113.4252652,CAPILANO,1,neighbourhood,0.55,5.0d 06:00:00,D,1,B1,181.0_0,5.0
270.0_0_B1,89 Ave & 71 St,,6.0d 14:45:00,,53.52290707,-113.4354382,KENILWORTH,1,neighbourhood,2.255,6.0d 06:00:00,D,1,B1,270.0_0,6.0
309.0_0_B1,82 ST-103 AVE,,6.0d 14:45:00,,53.54472687,-113.4532601,FOREST HEIGHTS,1,neighbourhood,0.84,6.0d 06:00:00,D,1,B1,309.0_0,6.0
511.0_0_B1,85 ST-STRATHEARN DRIVE,,6.0d 14:45:00,,53.53669821,-113.4618982,CLOVERDALE,1,neighbourhood,4.0115,6.0d 06:00:00,D,1,B1,511.0_0,6.0
568.0_0_B1,50 ST BTWN 76 & 82 AVE,,6.0d 14:45:00,,53.51698107,-113.4182013,GAINER INDUSTRIAL,1,neighbourhood,0.1975,6.0d 06:00:00,D,1,B1,568.0_0,6.0
590.0_0_B1,47 ST & 106B AVE,,10.0d 14:45:00,,53.55320893,-113.4135622,GOLD BAR,1,neighbourhood,0.765,10.0d 06:00:00,D,1,B1,590.0_0,10.0
596.0_0_B1,50 St: 70 Ave - Whitemud Drive Whitemud Drive,,1.0d 14:45:00,,53.49914123,-113.4180896,PYLYPOW INDUSTRIAL,1,roadway,0.444,1.0d 06:00:00,D,1,B1,596.0_0,1.0
597.0_0_B1,W/S 76 ST: 38 AVE - WHITEMUD DRIVE,,1.0d 14:45:00,,53.48042908,-113.4525123,TWEDDLE PLACE,1,roadway,1.197,1.0d 06:00:00,D,1,B1,597.0_0,1.0
777.0_0_B1,Road Allowance,,8.0d 14:45:00,,53.44096431,-113.3942473,CRAWFORD PLAINS,1,roadway,0.985,8.0d 06:00:00,D,1,B1,777.0_0,8.0
789.0_0_B1,NORTH SIDE 28 AVE & LAKEWOOD RD WEST -,,9.0d 14:45:00,,53.45895751,-113.4568045,TIPASKAN,1,roadway,0.1715,9.0d 06:00:00,D,1,B1,789.0_0,9.0
883.0_0_B1,9812 96A Street NW,,7.0d 14:45:00,,53.53870576,-113.4795739,CLOVERDALE,1,neighbourhood,3.5,7.0d 06:00:00,D,1,B1,883.0_0,7.0
947.0_0_B1,ARGYLL RD N/S BTWN 86 ST & 83 ST,,11.0d 14:45:00,,53.50190593,-113.4560504,ARGYLL,1,neighbourhood,0.31,11.0d 06:00:00,D,1,B1,947.0_0,11.0
976.0_0_B1,SOUTH SIDE 23 AVE BTWN 38-34 ST,,8.0d 14:45:00,,53.45366325,-113.3962258,BISSET,1,roadway,0.635,8.0d 06:00:00,D,1,B1,976.0_0,8.0
979.0_0_B1,WEST SIDE MILLWOODS RD-BTWN-28-23 AVE,,7.0d 14:45:00,,53.45526058,-113.448311,MEYONOHK,1,roadway,0.343,7.0d 06:00:00,D,1,B1,979.0_0,7.0
996.0_0_B1,GREENOCH CRESCENT-W 50 ST-GOLF COURS,,5.0d 14:45:00,,53.47794898,-113.4207306,GREENVIEW,1,neighbourhood,0.3,5.0d 06:00:00,D,1,B1,996.0_0,5.0
1313.0_0_B1,37-38 AVE & 32-34 ST,,3.0d 14:45:00,,53.47213596,-113.3919408,LARKSPUR,1,neighbourhood,0.8,3.0d 06:00:00,D,1,B1,1313.0_0,3.0
1450.0_0_B1,BTWN-85-91 ST,,4.0d 14:45:00,,53.46912852,-113.4624634,RICHFIELD,1,neighbourhood,1.0835,4.0d 06:00:00,D,1,B1,1450.0_0,4.0
1493.0_0_B1,EAST OF 80 ST & SOUTH OF 10 AVE,,10d 14:45:00,,53.43871656,-113.4530145,MENISA,1,neighbourhood,1.12,10d 06:00:00,D,10,B1,1493.0_0,
1612.0_0_B1,MILLBOURNE ROAD E-70 ST,,10.0d 14:45:00,,53.4792581,-113.4489091,MICHAELS PARK,1,neighbourhood,3.75,10.0d 06:00:00,D,1,B1,1612.0_0,10.0
1623.0_0_B1,NORTH SIDE 23 AVE-BTWN MILLWOODS RD E- 38 ST,,0.0d 14:45:00,,53.45485526,-113.4033495,BISSET,1,roadway,0.9,0.0d 06:00:00,D,1,B1,1623.0_0,0.0
1778.0_0_B1,11 AVE-58 ST,,5.0d 14:45:00,,53.44264997,-113.4290041,SAKAW,1,neighbourhood,2.215,5.0d 06:00:00,D,1,B1,1778.0_0,5.0
1814.0_0_B1,43A AVE - WHITEMUD DRIVE WEST OF 23 ST,,3.0d 14:45:00,,53.48249405,-113.3806965,LARKSPUR,1,neighbourhood,1.55,3.0d 06:00:00,D,1,B1,1814.0_0,3.0
1825.0_0_B1,76 AVE & 89 - 95 ST,,3.0d 14:45:00,,53.51228056,-113.4682563,MILL CREEK RAVINE SOUTH,1,neighbourhood,0.2285,3.0d 06:00:00,D,1,B1,1825.0_0,3.0
1837.0_0_B1,SOUTH SIDE&C 23 AVE-BTWN 91-85 ST,,7.0d 14:45:00,,53.45169814,-113.4632398,SATOO,1,roadway,0.177,7.0d 06:00:00,D,1,B1,1837.0_0,7.0
1854.0_0_B1,80 ST-76 AVE,,6.0d 14:45:00,,53.51080393,-113.4492502,AVONMORE,1,neighbourhood,1.4715,6.0d 06:00:00,D,1,B1,1854.0_0,6.0
1867.0_0_B1,88 ST-69 AVE,,9d 14:45:00,,53.50596204,-113.4637143,ARGYLL,1,neighbourhood,7.051,0d 06:00:00,D,10,B1,1867.0_0,
1868.0_0_B1,70-75 AVE - 85ST TO RAVINE,,12.0d 14:45:00,,53.50873972,-113.4609116,MILL CREEK RAVINE SOUTH,1,neighbourhood,0.8205,12.0d 06:00:00,D,1,B1,1868.0_0,12.0
1870.0_0_B1,ISLAND NE CORNER 75 ST & ARGYLE RD.,,12.0d 14:45:00,,53.50977333,-113.4432727,CORONET ADDITION INDUSTRIAL,1,neighbourhood,0.2385,12.0d 06:00:00,D,1,B1,1870.0_0,12.0
1889.0_0_B1,WS/C 91 ST BTWN 28 & 34 AVE,,9.0d 14:45:00,,53.46193542,-113.4670981,TIPASKAN,1,roadway,1.285,9.0d 06:00:00,D,1,B1,1889.0_0,9.0
1905.0_0_B1,91 ST BTWN 51 AVE & WHITEMUD DRIVE,,8.0d 14:45:00,,53.48513048,-113.4663823,MCINTYRE INDUSTRIAL,1,roadway,0.913,8.0d 06:00:00,D,1,B1,1905.0_0,8.0
1980.0_0_B1,WEST SIDE 34 ST 18-23 AVE & WEST SIDE 34 ST 16A - 18 AVE,,8.0d 14:45:00,,53.44893668,-113.3941282,DALY GROVE,1,roadway,0.46,8.0d 06:00:00,D,1,B1,1980.0_0,8.0
2016.0_0_B1,EAST OF 42 AVE BTWN 102 & 106B AVE,,4.0d 14:45:00,,53.54874589,-113.4057399,GOLD BAR,1,neighbourhood,0.3985,4.0d 06:00:00,D,1,B1,2016.0_0,4.0
2156.0_0_B1,KNOTTWOOD ROAD S-75 ST,,3.0d 14:45:00,,53.44317506,-113.448125,MENISA,1,neighbourhood,0.4115,3.0d 06:00:00,D,1,B1,2156.0_0,3.0
2165.0_0_B1,BTWN 75 & 34 ST INCLUDING 82 AVE - 71 ST,,10.0d 14:45:00,,53.51663277,-113.4035534,MORRIS INDUSTRIAL,1,roadway,0.47,10.0d 06:00:00,D,1,B1,2165.0_0,10.0
2193.0_0_B1,EAST 98 ST - RAVINE & 92 AVE,,11.0d 14:45:00,,53.52148967,-113.4750752,MILL CREEK RAVINE SOUTH,1,neighbourhood,0.425,11.0d 06:00:00,D,1,B1,2193.0_0,11.0
2194.0_0_B1,NORTH 63-66 AVE - 89-92 ST,,6.0d 14:45:00,,53.50096985,-113.4677927,HAZELDEAN,1,neighbourhood,0.7975,6.0d 06:00:00,D,1,B1,2194.0_0,6.0
2217.0_0_B1,95 ST-88 AVE,,5.0d 14:45:00,,53.5254877,-113.4743503,MILL CREEK RAVINE NORTH,1,neighbourhood,1.8035,5.0d 06:00:00,D,1,B1,2217.0_0,5.0
2233.0_0_B1,SOUTH SIDE/C 34 AVE BTWN MILLWOODS RD & 66 ST,,0.0d 14:45:00,,53.46495912,-113.4432916,LEE RIDGE,1,roadway,0.45,0.0d 06:00:00,D,1,B1,2233.0_0,0.0
2250.0_0_B1,54-58 ST & 34 AVE-38 AVE,,7.0d 14:45:00,,53.46914599,-113.4233464,HILLVIEW,1,neighbourhood,0.1685,7.0d 06:00:00,D,1,B1,2250.0_0,7.0
2255.0_0_B1,SOUTH SIDE/C 23 AVE-BTWN 66-50 ST,,7.0d 14:45:00,,53.4537107,-113.4285839,MILL WOODS TOWN CENTRE,1,roadway,0.53,7.0d 06:00:00,D,1,B1,2255.0_0,7.0
2261.0_0_B1,98 AVE-CONNORS ROAD-99 ST,,0.0d 14:45:00,,53.53647744,-113.4816691,MILL CREEK RAVINE NORTH,1,neighbourhood,2.526,0.0d 06:00:00,D,1,B1,2261.0_0,0.0
2270.0_0_B1,W/S 17 St. South of 38 Ave,,9d 14:45:00,,53.47390517,-113.3689558,WILD ROSE,1,roadway,2.785,0d 06:00:00,D,10,B1,2270.0_0,
2386.0_0_B1,WEST SIDE 75 ST-BTWN-98-101 AVE,,6.0d 14:45:00,,53.5388941,-113.4436549,FOREST HEIGHTS,1,neighbourhood,0.27,6.0d 06:00:00,D,1,B1,2386.0_0,6.0
2391.0_0_B1,96A ST - CONNORS ROAD,,9d 14:45:00,,53.53403064,-113.479064,CLOVERDALE,1,neighbourhood,2.3375,0d 06:00:00,D,10,B1,2391.0_0,
2448.0_0_B1,KNOTTWOOD RD E-19 AVE,,5.0d 14:45:00,,53.44899765,-113.441916,EKOTA,1,neighbourhood,1.369,5.0d 06:00:00,D,1,B1,2448.0_0,5.0
2469.0_0_B1,WS/C 91 ST BTWN 34 & 39 AVE,,8.0d 14:45:00,,53.46979343,-113.467082,STRATHCONA INDUSTRIAL PARK,1,roadway,2.55,8.0d 06:00:00,D,1,B1,2469.0_0,8.0
2492.0_0_B1,NORTH OF 28 AVE-BTWN MILLWOODS RD-37 S,,3.0d 14:45:00,,53.45955007,-113.4022907,BISSET,1,neighbourhood,0.2195,3.0d 06:00:00,D,1,B1,2492.0_0,3.0
2503.0_0_B1,East of School: 77 St & 40 Ave,,3.0d 14:45:00,,53.47648911,-113.4532758,TWEDDLE PLACE,1,neighbourhood,1.0415,3.0d 06:00:00,D,1,B1,2503.0_0,3.0
2577.0_0_B1,NORTH SIDE 28 AVE BTWN 91 ST & LAKEWOO,,9.0d 14:45:00,,53.45897563,-113.4631064,TIPASKAN,1,roadway,0.33,9.0d 06:00:00,D,1,B1,2577.0_0,9.0
2626.0_0_B1,W/S & C 50 ST BTWN 11-13 AVE,,8.0d 14:45:00,,53.44063989,-113.4187295,CRAWFORD PLAINS,1,roadway,0.289,8.0d 06:00:00,D,1,B1,2626.0_0,8.0
2632.0_0_B1,MILLWOODS ROAD-36 AVE,,3.0d 14:45:00,,53.47026464,-113.4558261,RICHFIELD,1,neighbourhood,1.737,3.0d 06:00:00,D,1,B1,2632.0_0,3.0
2640.0_0_B1,WEST OF 24 ST: BETWEEN 38 & 43A AVE,,3.0d 14:45:00,,53.47847993,-113.3811779,LARKSPUR,1,neighbourhood,1.6815,3.0d 06:00:00,D,1,B1,2640.0_0,3.0
2642.0_0_B1,66 AVE - 3 ST,,9d 14:45:00,,53.5028667,-113.3485284,MAPLE RIDGE INDUSTRIAL,1,neighbourhood,1.9,0d 06:00:00,D,10,B1,2642.0_0,
2662.0_0_B1,38 AVE-58 ST,,10.0d 14:45:00,,53.46988154,-113.4269172,HILLVIEW,1,neighbourhood,1.8665,10.0d 06:00:00,D,1,B1,2662.0_0,10.0
2683.0_0_B1,ES 91 ST BTWN 23 - 28 AVE,,1.0d 14:45:00,,53.45531632,-113.4657287,MEYONOHK,1,roadway,1.5,1.0d 06:00:00,D,1,B1,2683.0_0,1.0
2846.0_0_B1,S/S SH PK FREEWAY: OVERPASS - 50 ST(34 St to 50 St),,10.0d 14:45:00,,53.51414833,-113.4213001,DAVIES INDUSTRIAL EAST,1,roadway,0.4705,10.0d 06:00:00,D,1,B1,2846.0_0,10.0
2915.0_0_B1,N.S. 28 AVE BTWN PIPELINE & 66 ST,,1.0d 14:45:00,,53.45856711,-113.4369712,KAMEYOSEK,1,roadway,0.466,1.0d 06:00:00,D,1,B1,2915.0_0,1.0
2921.0_0_B1,WEST OF 37 ST & NORTH OF 28 AVE,,5.0d 14:45:00,,53.45907884,-113.3992562,BISSET,1,neighbourhood,0.1885,5.0d 06:00:00,D,1,B1,2921.0_0,5.0
2955.0_0_B1,ES 91 ST BTWN 28 & 34 AVE,,1.0d 14:45:00,,53.4619236,-113.465737,TIPASKAN,1,roadway,1.75,1.0d 06:00:00,D,1,B1,2955.0_0,1.0
2973.0_0_B1,BTWN 75 & 34 ST INCLUDING 82 AVE - 71 ST,,9d 14:45:00,,53.51591628,-113.4046955,MORRIS INDUSTRIAL,1,roadway,1.4505,0d 06:00:00,D,10,B1,2973.0_0,
2985.0_0_B1,E/S & C 91 ST: -BTWN 58 & 63 AVE,,9d 14:45:00,,53.49343282,-113.4670906,CORONET ADDITION INDUSTRIAL,1,roadway,0.345,0d 06:00:00,D,10,B1,2985.0_0,
3041.0_0_B1,38 ST - 34 ST & Whitemud Dr - Mill Creek Ravine,,9d 14:45:00,,53.48179332,-113.4036836,KINISKI GARDENS,1,neighbourhood,2.19,0d 06:00:00,D,10,B1,3041.0_0,
3182.0_0_B1,93A AVE-58 ST,,9d 14:45:00,,53.52930644,-113.424802,OTTEWELL,1,neighbourhood,3.115,0d 06:00:00,D,10,B1,3182.0_0,
3196.0_0_B1,SOUTH SIDE/C 23AVE BTWN MILLWOODS RD and 66 ST,,9d 14:45:00,,53.45344629,-113.4413081,MILL WOODS PARK,1,roadway,0.465,0d 06:00:00,D,10,B1,3196.0_0,
3276.0_0_B1,EAST SIDE/C 50 ST BTWN 23-34 AVE,,9d 14:45:00,,53.45966866,-113.4205523,TAWA,1,roadway,0.6,0d 06:00:00,D,10,B1,3276.0_0,
3313.0_0_B1,Summerside Dr - 88 St,,9d 14:45:00,,53.42007251,-113.4639724,SUMMERSIDE,1,neighbourhood,3.148,0d 06:00:00,D,10,B1,3313.0_0,
3360.0_0_B1,BTWN 75 & 34 ST INCLUDING 82 AVE - 71 ST,,9d 14:45:00,,53.5157866,-113.4302362,GIRARD INDUSTRIAL,1,roadway,1.2715,0d 06:00:00,D,10,B1,3360.0_0,
3377.0_0_B1,12 AVE-41 ST,,9d 14:45:00,,53.44155176,-113.4052089,CRAWFORD PLAINS,1,neighbourhood,2.285,0d 06:00:00,D,10,B1,3377.0_0,
3399.0_0_B1,EAST SIDE 66 ST BTWN 10 AVE-MILLWOODS R,,9d 14:45:00,,53.44216099,-113.4385006,SAKAW,1,roadway,1.125,0d 06:00:00,D,10,B1,3399.0_0,
3400.0_0_B1,19A AVE-57 ST/Millwoods road -56-62 ST,,9d 14:45:00,,53.44818909,-113.4285355,MEYOKUMIN,1,neighbourhood,2.1375,0d 06:00:00,D,10,B1,3400.0_0,
3416.0_0_B1,E/S & C 66 ST: MILLWOODS RD S - 23 AVE,,9d 14:45:00,,53.44906998,-113.4354028,MEYOKUMIN,1,roadway,0.635,0d 06:00:00,D,10,B1,3416.0_0,
3432.0_0_B1,EAST SIDE/C 50 ST-BTWN 40 AVE-WHITEMUD,,9d 14:45:00,,53.48054226,-113.417776,MILL WOODS GOLF COURSE,1,roadway,0.57,0d 06:00:00,D,10,B1,3432.0_0,
3434.0_0_B1,319 - 83 St SW,,9d 14:45:00,,53.42943466,-113.4581559,ELLERSLIE,1,neighbourhood,2.5925,0d 06:00:00,D,10,B1,3434.0_0,
3492.0_0_B1,N/S 23 AVE: 38 ST - 34 ST,,9d 14:45:00,,53.45401563,-113.3968153,BISSET,1,roadway,0.175,0d 06:00:00,D,10,B1,3492.0_0,
3517.0_0_B1,SOUTH SIDE 34 AVE-BTWN-MILLWOODS RD E-34 St,,9d 14:45:00,,53.46363994,-113.4001809,BISSET,1,roadway,0.43,0d 06:00:00,D,10,B1,3517.0_0,
3559.0_0_B1,38 ST-BTWN 38-41 AVE,,9d 14:45:00,,53.47481221,-113.4007496,KINISKI GARDENS,1,neighbourhood,2.7565,0d 06:00:00,D,10,B1,3559.0_0,
3596.0_0_B1,WS/C 91 ST BTWM 39 AVE & WHITEMUD DRIVE,,9d 14:45:00,,53.47761346,-113.4671558,STRATHCONA INDUSTRIAL PARK,1,roadway,1.34,0d 06:00:00,D,10,B1,3596.0_0,
3611.0_0_B1,98-101 AVE-64-67 ST,,9d 14:45:00,,53.53949827,-113.4305311,TERRACE HEIGHTS,1,neighbourhood,1.6965,0d 06:00:00,D,10,B1,3611.0_0,
3618.0_0_B1,95 AVE-90 ST,,9d 14:45:00,,53.53239598,-113.4645996,STRATHEARN,1,neighbourhood,0.395,0d 06:00:00,D,10,B1,3618.0_0,
3646.0_0_B1,58 ST & YOUVILLE DR EAST TO POLICE STATI,,9d 14:45:00,,53.46235135,-113.4255351,TAWA,1,neighbourhood,3.52,0d 06:00:00,D,10,B1,3646.0_0,
3647.0_0_B1,55 ST-BTWN 28 AVE-25 AVE,,9d 14:45:00,,53.45759036,-113.4246402,MILL WOODS TOWN CENTRE,1,neighbourhood,1.065,0d 06:00:00,D,10,B1,3647.0_0,
3666.0_0_B1,North of Edwards Drive SW & East of 91 St SW,,9d 14:45:00,,53.43105561,-113.4669521,ELLERSLIE,1,neighbourhood,0.2105,0d 06:00:00,D,10,B1,3666.0_0,
3667.0_0_B1,East of 88 St SW & South of 6 Ave SW,,9d 14:45:00,,53.42618572,-113.466953,ELLERSLIE,1,neighbourhood,0.2595,0d 06:00:00,D,10,B1,3667.0_0,
3705.0_0_B1,Ellerslie Road & 91 St SW,,9d 14:45:00,,53.42400853,-113.4711774,SUMMERSIDE,1,neighbourhood,0.3,0d 06:00:00,D,10,B1,3705.0_0,
3706.0_0_B1,S/S Ellerslie Road: Parsons Rd - 91 St,,9d 14:45:00,,53.424915,-113.4765264,ELLERSLIE INDUSTRIAL,1,roadway,0.225,0d 06:00:00,D,10,B1,3706.0_0,
3707.0_0_B1,S/S Ellerslie Road: 91 St - 78 St,,9d 14:45:00,,53.42474573,-113.4597029,SUMMERSIDE,1,roadway,0.5,0d 06:00:00,D,10,B1,3707.0_0,
3846.0_0_B1,BTWN MILLBOURNE RD E-66 ST,,9d 14:45:00,,53.47997797,-113.4441735,MICHAELS PARK,1,neighbourhood,0.1815,0d 06:00:00,D,10,B1,3846.0_0,
3897.0_0_B1,WEST OF 23 ST: 38 AVE - 37A AVE,,9d 14:45:00,,53.4739436,-113.3811523,WILD ROSE,1,neighbourhood,1.0235,0d 06:00:00,D,10,B1,3897.0_0,
3907.0_0_B1,W/S & C 34 St: 38 Ave South to Ravine,,9d 14:45:00,,53.46893081,-113.3939601,KINISKI GARDENS,1,roadway,0.6725,0d 06:00:00,D,10,B1,3907.0_0,
3921.0_0_B1,EAST SIDE/C 66 ST: 38 AVE-WHITEMUD DRIVE,,9d 14:45:00,,53.47947008,-113.4412674,MILL WOODS GOLF COURSE,1,roadway,0.65,0d 06:00:00,D,10,B1,3921.0_0,
3951.0_0_B1,W/S 34 ST: WHITEMUD DR - 38 AVE,,9d 14:45:00,,53.4802683,-113.3939614,KINISKI GARDENS,1,roadway,0.5,0d 06:00:00,D,10,B1,3951.0_0,
3958.0_0_B1,80 ST-S OF 101 AVE,,9d 14:45:00,,53.53927859,-113.4508733,FOREST HEIGHTS,1,neighbourhood,1.0,0d 06:00:00,D,10,B1,3958.0_0,
3959.0_0_B1,E/S & C 50 ST: 92 AVE - 101 AVE,,9d 14:45:00,,53.53249873,-113.4183825,EASTGATE BUSINESS PARK,1,neighbourhood,1.025,0d 06:00:00,D,10,B1,3959.0_0,
3974.0_0_B1,17 ST-66 AVE,,9d 14:45:00,,53.50154929,-113.3675824,SOUTHEAST INDUSTRIAL,1,neighbourhood,4.631,0d 06:00:00,D,10,B1,3974.0_0,
3977.0_0_B1,WEST SIDE 50 ST BTWN 38-40 AVE,,9d 14:45:00,,53.4731319,-113.4160265,GREENVIEW,1,roadway,0.2,0d 06:00:00,D,10,B1,3977.0_0,
3996.0_0_B1,MILLBOURNE RD E-LEE RIDGE RD,,9d 14:45:00,,53.47100097,-113.4468918,LEE RIDGE,1,neighbourhood,2.5,0d 06:00:00,D,10,B1,3996.0_0,
4010.0_0_B1,N/S & C 90 AVE: 75 ST - 85 ST,,9d 14:45:00,,53.52534617,-113.4499205,IDYLWYLDE,1,neighbourhood,0.2785,0d 06:00:00,D,10,B1,4010.0_0,
4011.0_0_B1,67A ST-93A AVE,,9d 14:45:00,,53.53125177,-113.4270686,OTTEWELL,1,neighbourhood,5.5,0d 06:00:00,D,10,B1,4011.0_0,
4013.0_0_B1,67 ST - 6 AVE SW,,9d 14:45:00,,53.42720319,-113.447899,ELLERSLIE,1,neighbourhood,1.5,0d 06:00:00,D,10,B1,4013.0_0,
4034.0_0_B1,EAST SIDE/C 50 ST 38 - 40 AVE,,9d 14:45:00,,53.47302522,-113.4155722,MINCHAU,1,roadway,0.282,0d 06:00:00,D,10,B1,4034.0_0,
4035.0_0_B1,79 AVE-87 ST,,9d 14:45:00,,53.51411138,-113.4595635,GREENVIEW,1,neighbourhood,1.1275,0d 06:00:00,D,10,B1,4035.0_0,
4043.0_0_B1,79 ST-94 AVE,,9d 14:45:00,,53.53148454,-113.4508368,PAPASCHASE INDUSTRIAL,1,neighbourhood,2.6645,0d 06:00:00,D,10,B1,4043.0_0,
4045.0_0_B1,17 Ave-18A Ave & 48 St-Mill Woods Road East,,9d 14:45:00,,53.44749477,-113.4080485,OTTEWELL,1,neighbourhood,5.2235,0d 06:00:00,D,10,B1,4045.0_0,
4048.0_0_B1,1888 - 37 ST,,9d 14:45:00,,53.44873644,-113.4006682,DALY GROVE,1,neighbourhood,2.456,0d 06:00:00,D,10,B1,4048.0_0,
4081.0_0_B1,SOUTH SIDE&C 23 AVE-BTWN 85 ST-MILLWOO,,9d 14:45:00,,53.45243671,-113.4541011,SATOO,1,roadway,0.535,0d 06:00:00,D,10,B1,4081.0_0,
4087.0_0_B1,91 ST BTWN 51 & 54 AVE,,9d 14:45:00,,53.48984947,-113.4670316,CORONET INDUSTRIAL,1,roadway,0.4,0d 06:00:00,D,10,B1,4087.0_0,
4122.0_0_B1,43A AVE: 27 - 30 ST,,9d 14:45:00,,53.47978351,-113.3847698,LARKSPUR,1,neighbourhood,4.77,0d 06:00:00,D,10,B1,4122.0_0,
4123.0_0_B1,91 ST-86 AVE,,9d 14:45:00,,53.5227385,-113.4689726,BONNIE DOON,1,neighbourhood,0.176,0d 06:00:00,D,10,B1,4123.0_0,
4165.0_0_B1,23 ST & 37A AVE,,9d 14:45:00,,53.47135276,-113.3787691,WILD ROSE,1,neighbourhood,2.3575,0d 06:00:00,D,10,B1,4165.0_0,
4177.0_0_B1,Millbourned Road West & 40 Ave,,9d 14:45:00,,53.47576909,-113.4545088,TWEDDLE PLACE,1,neighbourhood,1.0415,0d 06:00:00,D,10,B1,4177.0_0,
4186.0_0_B1,JAMHA ROAD & JACKSON ROAD,,9d 14:45:00,,53.48343111,-113.4072579,JACKSON HEIGHTS,1,neighbourhood,1.273,0d 06:00:00,D,10,B1,4186.0_0,
4198.0_0_B1,79 ST-98 AVE,,9d 14:45:00,,53.53804707,-113.4470586,FOREST HEIGHTS,1,neighbourhood,1.035,0d 06:00:00,D,10,B1,4198.0_0,
4204.0_0_B1,SOUTH SIDE/C 34 AVE-BTWN-66-50 ST,,9d 14:45:00,,53.46524425,-113.4282146,TAWA,1,roadway,0.5,0d 06:00:00,D,10,B1,4204.0_0,
4259.0_0_B1,44 ST-39 AVE,,9d 14:45:00,,53.47452958,-113.4056587,KINISKI GARDENS,1,neighbourhood,0.2085,0d 06:00:00,D,10,B1,4259.0_0,
4260.0_0_B1,W/S MILL WOODS RD EAST: 23 AVE - 34 AVE,,9d 14:45:00,,53.4598939,-113.4075201,WEINLOS,1,roadway,0.621,0d 06:00:00,D,10,B1,4260.0_0,
4261.0_0_B1,54 ST & 107A AVE,,9d 14:45:00,,53.55571284,-113.4235434,CAPILANO,1,neighbourhood,2.5,0d 06:00:00,D,10,B1,4261.0_0,
4262.0_0_B1,WEST SIDE 50 ST-82-90 AVE,,9d 14:45:00,,53.52051234,-113.4190959,OTTEWELL,1,neighbourhood,0.332,0d 06:00:00,D,10,B1,4262.0_0,
4267.0_0_B1,37 ST-33 AVE,,9d 14:45:00,,53.46154834,-113.4005705,BISSET,1,neighbourhood,3.746,0d 06:00:00,D,10,B1,4267.0_0,
4294.0_0_B1,48 ST & 28 AVE,,9d 14:45:00,,53.46097016,-113.4141569,WEINLOS,1,neighbourhood,3.0135,0d 06:00:00,D,10,B1,4294.0_0,
4308.0_0_B1,86 AVE-68A ST,,9d 14:45:00,,53.51979663,-113.4305139,KENILWORTH,1,neighbourhood,1.31,0d 06:00:00,D,10,B1,4308.0_0,
4328.0_0_B1,79 ST-LAKEWOOD RD S,,9d 14:45:00,,53.45529188,-113.4558291,MEYONOHK,1,neighbourhood,2.096,0d 06:00:00,D,10,B1,4328.0_0,
4331.0_0_B1,EAST OF 75 ST SW & NORTH OF 7 AVE SW,,9d 14:45:00,,53.42781177,-113.44932,ELLERSLIE,1,neighbourhood,0.2455,0d 06:00:00,D,10,B1,4331.0_0,
4341.0_0_B1,41 AVE-41 ST,,9d 14:45:00,,53.47838217,-113.4062629,KINISKI GARDENS,1,neighbourhood,3.3015,0d 06:00:00,D,10,B1,4341.0_0,
4344.0_0_B1,W/S & C 34 St: 34 Ave - 23 Ave,,9d 14:45:00,,53.45868909,-113.3941215,BISSET,1,roadway,1.44,0d 06:00:00,D,10,B1,4344.0_0,
4365.0_0_B1,SOUTH SIDE/C 34 AVE-91 ST-MILLWOODS RD,,9d 14:45:00,,53.46504899,-113.4592898,RICHFIELD,1,roadway,0.4335,0d 06:00:00,D,10,B1,4365.0_0,
4398.0_0_B1,17 St - 68 Ave,,9d 14:45:00,,53.50519941,-113.3651641,SOUTHEAST INDUSTRIAL,1,neighbourhood,1.9165,0d 06:00:00,D,10,B1,4398.0_0,
4415.0_0_B1,East of 30 St: 33 Ave - 23 Ave,,9d 14:45:00,,53.45963731,-113.3817214,SILVER BERRY,1,neighbourhood,2.2915,0d 06:00:00,D,10,B1,4415.0_0,
4423.0_0_B1,MW RD S-75 ST/ES OF SCHOOL,,9d 14:45:00,,53.44656424,-113.4479371,EKOTA,1,neighbourhood,0.406,0d 06:00:00,D,10,B1,4423.0_0,
4427.0_0_B1,LAKEWOOD RD E - 31 AVE,,9d 14:45:00,,53.46125892,-113.4432301,KAMEYOSEK,1,neighbourhood,2.4305,0d 06:00:00,D,10,B1,4427.0_0,
4443.0_0_B1,28 Ave: Parsons Road (99 St) - 91 St,,9d 14:45:00,,53.45879988,-113.475642,PARSONS INDUSTRIAL,1,roadway,0.735,0d 06:00:00,D,10,B1,4443.0_0,
4452.0_0_B1,E/S & C 50 ST: 82 - 90 AVE,,9d 14:45:00,,53.51956079,-113.4183455,LAMBTON INDUSTRIAL,1,neighbourhood,0.19,0d 06:00:00,D,10,B1,4452.0_0,
4471.0_0_B1,Tamarack Green - 12 St,,9d 14:45:00,,53.46908585,-113.3606443,TAMARACK,1,neighbourhood,3.435,0d 06:00:00,D,10,B1,4471.0_0,
4482.0_0_B1,E/S & C 50 St: Mill Woods Road South - 23 Ave,,9d 14:45:00,,53.44998974,-113.4193237,POLLARD MEADOWS,1,roadway,0.95,0d 06:00:00,D,10,B1,4482.0_0,
4483.0_0_B1,EAST SIDE/C 50 ST BTWN 34 & 38 AVE,,9d 14:45:00,,53.46759607,-113.4181133,MINCHAU,1,roadway,0.357,0d 06:00:00,D,10,B1,4483.0_0,
4485.0_0_B1,E/S & C 66 ST: 34 AVE - 38 AVE,,9d 14:45:00,,53.46980168,-113.4376774,LEE RIDGE,1,roadway,0.5,0d 06:00:00,D,10,B1,4485.0_0,
4529.0_0_B1,Ellerslie Rd:101 St-91 St & Parsons Rd:N of Ellersli,,9d 14:45:00,,53.42624096,-113.4829633,ELLERSLIE INDUSTRIAL,1,roadway,0.8,0d 06:00:00,D,10,B1,4529.0_0,
4531.0_0_B1,66 St SW & 2 Ave SW,,9d 14:45:00,,53.429125,-113.4404401,CHARLESWORTH,1,neighbourhood,0.55,0d 06:00:00,D,10,B1,4531.0_0,
4532.0_0_B1,3225 - 35 A Ave,,9d 14:45:00,,53.46712332,-113.3923492,WILD ROSE,1,neighbourhood,0.412,0d 06:00:00,D,10,B1,4532.0_0,
4533.0_0_B1,East Side & Center 17 St: Whitemud Drive - 34 Av,,9d 14:45:00,,53.4764141,-113.3685041,TAMARACK,1,roadway,1.01,0d 06:00:00,D,10,B1,4533.0_0,
4538.0_0_B1,38 AVE-58 ST,,9d 14:45:00,,53.47530033,-113.427371,GREENVIEW,1,neighbourhood,4.269,0d 06:00:00,D,10,B1,4538.0_0,
4539.0_0_B1,3335 - 25 Street,,9d 14:45:00,,53.465245,-113.3785316,SILVER BERRY,1,neighbourhood,1.1795,0d 06:00:00,D,10,B1,4539.0_0,
4543.0_0_B1,ELLERSLIE ROAD-66 ST,,9d 14:45:00,,53.42636695,-113.4405375,CHARLESWORTH,1,neighbourhood,2.8,0d 06:00:00,D,10,B1,4543.0_0,
4550.0_0_B1,BTWN 75 & 34 ST INCLUDING 82 AVE - 71 ST,,9d 14:45:00,,53.51408458,-113.4324145,GAINER INDUSTRIAL,1,roadway,0.2385,0d 06:00:00,D,10,B1,4550.0_0,
4554.0_0_B1,66 St Ellerslie to 2 AVE,,9d 14:45:00,,53.42793174,-113.4427959,ELLERSLIE,1,roadway,0.375,0d 06:00:00,D,10,B1,4554.0_0,
4556.0_0_B1,FULTON ROAD-103-104 AVE,,9d 14:45:00,,53.54598543,-113.4250088,FULTON PLACE,1,neighbourhood,1.3815,0d 06:00:00,D,10,B1,4556.0_0,
4572.0_0_B1,KNOTTWOOD ROAD W-17 AVE,,9d 14:45:00,,53.44613593,-113.4576249,SATOO,1,neighbourhood,1.5575,0d 06:00:00,D,10,B1,4572.0_0,
4576.0_0_B1,94 AVE-OTTEWELL ROAD,,9d 14:45:00,,53.53142729,-113.4372789,OTTEWELL,1,neighbourhood,1.7105,0d 06:00:00,D,10,B1,4576.0_0,
4581.0_0_B1,Savaryn Drive & Summerside Link,,9d 14:45:00,,53.41291999,-113.4775009,SUMMERSIDE,1,neighbourhood,1.367,0d 06:00:00,D,10,B1,4581.0_0,
4586.0_0_B1,67-70 ST-101-103 AVE,,9d 14:45:00,,53.54272791,-113.432695,TERRACE HEIGHTS,1,neighbourhood,0.589,0d 06:00:00,D,10,B1,4586.0_0,
4604.0_0_B1,46 St & 106 Ave,,9d 14:45:00,,53.54981941,-113.4141054,GOLD BAR,1,neighbourhood,1.48,0d 06:00:00,D,10,B1,4604.0_0,
4609.0_0_B1,89 ST-95 AVE,,9d 14:45:00,,53.5307297,-113.4620961,STRATHEARN,1,neighbourhood,1.44,0d 06:00:00,D,10,B1,4609.0_0,
4616.0_0_B1,83 ST-100 AVE,,9d 14:45:00,,53.53934181,-113.4556598,FOREST HEIGHTS,1,neighbourhood,0.475,0d 06:00:00,D,10,B1,4616.0_0,
4623.0_0_B1,104 AVE-62 ST,,9d 14:45:00,,53.54797208,-113.4299653,FULTON PLACE,1,neighbourhood,1.3025,0d 06:00:00,D,10,B1,4623.0_0,
4625.0_0_B1,NE OF 79 ST-101 AVE,,9d 14:45:00,,53.54312581,-113.44647,RIVER VALLEY GOLD BAR,1,neighbourhood,1.08,0d 06:00:00,D,10,B1,4625.0_0,
4626.0_0_B1,76 ST-105 AVE,,9d 14:45:00,,53.54712329,-113.4437936,FOREST HEIGHTS,1,neighbourhood,0.355,0d 06:00:00,D,10,B1,4626.0_0,
4643.0_0_B1,Wayne Gretzky Drive: 101 Ave - River,,9d 14:45:00,,53.54981994,-113.4396051,FOREST HEIGHTS,1,neighbourhood,1.9285,0d 06:00:00,D,10,B1,4643.0_0,
4650.0_0_B1,N/S 23 AVE: 50ST - MILLWOODS RD E,,9d 14:45:00,,53.45546733,-113.4144299,WEINLOS,1,roadway,0.755,0d 06:00:00,D,10,B1,4650.0_0,
4651.0_0_B1,7304 ROWLAND ROAD,,9d 14:45:00,,53.55304255,-113.4392846,FOREST HEIGHTS,1,neighbourhood,0.175,0d 06:00:00,D,10,B1,4651.0_0,
4652.0_0_B1,S/S 82 AVE: 73-71 ST & 71 ST: 82-79 AVE,,9d 14:45:00,,53.51742877,-113.4378236,KING EDWARD PARK,1,roadway,0.17,0d 06:00:00,D,10,B1,4652.0_0,
4655.0_0_B1,98 AVE - 93 ST,,9d 14:45:00,,53.53852272,-113.4712717,CLOVERDALE,1,neighbourhood,0.319,0d 06:00:00,D,10,B1,4655.0_0,
994667.0_0_B1,9411 - 97 Avenue,,9d 14:45:00,,53.53440614,-113.4725643,CLOVERDALE,1,neighbourhood,3.039,0d 06:00:00,D,10,B1,994667.0_0,
4674.0_0_B1,503 - 59 St SW (5805 - 3 AVE),,9d 14:45:00,,53.42917856,-113.4315572,CHARLESWORTH,1,neighbourhood,1.7,0d 06:00:00,D,10,B1,4674.0_0,
4682.0_0_B1,South of 32 Ave & East of Silver Berry Road,,9d 14:45:00,,53.46152714,-113.3758157,SILVER BERRY,1,neighbourhood,0.494,0d 06:00:00,D,10,B1,4682.0_0,
4683.0_0_B1,31 Ave East of 30 St,,9d 14:45:00,,53.46152891,-113.3794979,SILVER BERRY,1,neighbourhood,0.6175,0d 06:00:00,D,10,B1,4683.0_0,
4684.0_0_B1,96A AVE-OTTEWELL ROAD,,9d 14:45:00,,53.53412676,-113.4393086,OTTEWELL,1,neighbourhood,0.93,0d 06:00:00,D,10,B1,4684.0_0,
4685.0_0_B1,Sunset Blvd (70 St) - Ellerslie Rd,,9d 14:45:00,,53.42394909,-113.4492492,SUMMERSIDE,1,neighbourhood,0.75,0d 06:00:00,D,10,B1,4685.0_0,
4689.0_0_B1,91 ST E/W Parsons Rd - 25 Avenue,,9d 14:45:00,,53.41468495,-113.4813885,ELLERSLIE INDUSTRIAL,1,roadway,0.5,0d 06:00:00,D,10,B1,4689.0_0,
4708.0_0_B1,66 St SW & Ellerslie Road,,9d 14:45:00,,53.42376245,-113.4408112,WALKER,1,neighbourhood,0.6,0d 06:00:00,D,10,B1,4708.0_0,
4709.0_0_B1,55 St SW & 3 Ave SW (5607 3 AVE),,9d 14:45:00,,53.42802726,-113.4296006,CHARLESWORTH,1,neighbourhood,0.2,0d 06:00:00,D,10,B1,4709.0_0,
4725.0_0_B1,70 St SW & 16 Ave SW - 21 Ave SW,,9d 14:45:00,,53.41780384,-113.451045,SUMMERSIDE,1,neighbourhood,2.802,0d 06:00:00,D,10,B1,4725.0_0,
5321.0_0_B1,Orchards Gate SW & Orchards Dr SW,,9d 14:45:00,,53.40736169,-113.4741846,Summerside,1,neighbourhood,0.47,0d 06:00:00,D,10,B1,5321.0_0,
5323.0_0_B1,25 Ave SW & Orchards Gate,,9d 14:45:00,,53.40983397,-113.4709706,SUMMERSIDE,1,neighbourhood,0.5155,0d 06:00:00,D,10,B1,5323.0_0,
5565.0_0_B1,34 ave 21 st NW,,9d 14:45:00,,53.46643817,-113.3751525,WILD ROSE,1,neighbourhood,0.4465,0d 06:00:00,D,10,B1,5565.0_0,
5845.0_0_B1,66 St: 21 Ave SW to Ellerslie Rd,,9d 14:45:00,,53.417599851,-113.442478953,WALKER,1,roadway,0.6995,0d 06:00:00,D,10,B1,5845.0_0,
6250.0_0_B1,90 St & 23 Ave SW,,9d 14:45:00,,53.41169516,-113.4724155,SUMMERSIDE,1,neighbourhood,0.514,0d 06:00:00,D,10,B1,6250.0_0,
6286.0_0_B1,"East of 28 St, near 20 Ave NW",,9d 14:45:00,,53.450518786,-113.381810411,LAUREL,1,neighbourhood,2.189,0d 06:00:00,D,10,B1,6286.0_0,
6306.0_0_B1,Roper Rd & 36 St,,9d 14:45:00,,53.49648373,-113.3974274,PYLYPOW INDUSTRIAL,1,neighbourhood,2.5,0d 06:00:00,D,10,B1,6306.0_0,
6827.0_0_B1,Savaryn Drive and 22 Avenue SW,,9d 14:45:00,,53.41464618,-113.4624041,SUMMERSIDE,1,neighbourhood,3.435,0d 06:00:00,D,10,B1,6827.0_0,
6848.0_0_B1,70 Street SW and 18 Avenue SW,,9d 14:45:00,,53.41783449,-113.4492125,SUMMERSIDE,1,neighbourhood,2.5935,0d 06:00:00,D,10,B1,6848.0_0,
7430.0_0_B1,32 St & 16A Ave NW,,9d 14:45:00,,53.44484975,-113.390003,LAUREL,1,neighbourhood,1.268,0d 06:00:00,D,10,B1,7430.0_0,
8287.0_0_B1,32 Street - 17A Avenue,,9d 14:45:00,,53.44606634,-113.385804236,Laurel,1,neighbourhood,1.4495,0d 06:00:00,D,10,B1,8287.0_0,
8382.0_0_B1,Tamarack Blvd - 28 Avenue,,9d 14:45:00,,53.459029552,-113.363658425,TAMARACK,1,neighbourhood,0.6795,0d 06:00:00,D,10,B1,8382.0_0,
8442.0_0_B1,32 St & 14 Ave,,9d 14:45:00,,53.40568068,-113.4728549,Laurel,1,neighbourhood,0.248,0d 06:00:00,D,10,B1,8442.0_0,
8443.0_0_B1,East of Crabapple Run SW from 4709 Crabapple Run SW to 4631 Crabapple Run SW,,9d 14:45:00,,53.40568068,-113.4728549,Summerside,1,neighbourhood,0.1695,0d 06:00:00,D,10,B1,8443.0_0,
9146.0_0_B1,51 Avenue East of 34 Street,,9d 14:45:00,,53.4894329,-113.3920124,SOUTHEAST INDUSTRIAL,1,neighbourhood,0.4845,0d 06:00:00,D,10,B1,9146.0_0,
9354.0_0_B1,98 AVE-CONNORS ROAD-99 ST,,9d 14:45:00,,53.53407858,-113.483941,Cloverdale,1,neighbourhood,1.1015,0d 06:00:00,D,10,B1,9354.0_0,
2409.0_0_B1,98 ST/70-72 AVE + P.U.L. S/W 99ST&73AVE,,9d 14:45:00,,53.50761008,-113.4843723,HAZELDEAN,1,neighbourhood,0.795,0d 06:00:00,D,10,B1,2409.0_0,
2687_0_B1,#300 BULYEA ROAD,,6.0d 14:45:00,,53.47339753,-113.574114,Bulyea Heights,1,neighbourhood,4.8375,6.0d 06:00:00,D,1,B1,2687_0,6.0
75_0_B1,09 AVE-111-113 ST,,9d 14:45:00,,53.43955434,-113.5223116,Twin Brooks,1,neighbourhood,0.2645,0d 06:00:00,D,10,B1,75_0,
152_0_B1,Ellerslie Rd (9 Ave. SW) N. & S. side - (119 St.) to SCHOOL,,10.0d 14:45:00,,53.42490752,-113.5327273,MacEwan,1,neighbourhood,0.9,10.0d 06:00:00,D,1,B1,152_0,10.0
194_0_B1,FALCONER Road- # 1401 FALCONER ROAD,,3.0d 14:45:00,,53.46839614,-113.5912643,Falconer Heights,1,neighbourhood,0.198,3.0d 06:00:00,D,1,B1,194_0,3.0
208_0_B1,#1003 Leger Boulevard & Rabbit Hill Road,,12.0d 14:45:00,,53.4595878,-113.5675726,Leger,1,neighbourhood,0.3355,12.0d 06:00:00,D,1,B1,208_0,12.0
356_0_B1,29A AVE-104 ST,,3.0d 14:45:00,,53.46059016,-113.4965017,Ermineskin,1,neighbourhood,0.3265,3.0d 06:00:00,D,1,B1,356_0,3.0
487_0_B1,1808 Haswell Way,,5.0d 14:45:00,,53.45113302,-113.5995119,Haddow,1,neighbourhood,0.331,5.0d 06:00:00,D,1,B1,487_0,5.0
536_0_B1,9 Ave. - 110 St to 107 St.,,6.0d 14:45:00,,53.42521698,-113.5090275,Richford,1,neighbourhood,0.25,6.0d 06:00:00,D,1,B1,536_0,6.0
559_0_B1,43 AVE-147A ST,,3.0d 14:45:00,,53.47916891,-113.5760812,Ramsey Heights,1,neighbourhood,0.1955,3.0d 06:00:00,D,1,B1,559_0,3.0
649_0_B1,111 ST: WHITEMUD DRIVE to 51 AVE,,7.0d 14:45:00,,53.48532079,-113.5176727,Empire Park,1,neighbourhood,0.5705,7.0d 06:00:00,D,1,B1,649_0,7.0
665_0_B1,E/S GATEWAY BLVD: 19 AVE - 15 AVE,,0.0d 14:45:00,,53.444490589,-113.492194656,South Edmonton Common,1,roadway,0.305,0.0d 06:00:00,D,1,B1,665_0,0.0
691_0_B1,89 AVE-118 ST,,7.0d 14:45:00,,53.52514221,-113.5359495,Windsor Park,1,neighbourhood,0.4335,7.0d 06:00:00,D,1,B1,691_0,7.0
761_0_B1,Rabbit Hill Road - #7005 South Terwilleger Drive,,6.0d 14:45:00,,53.43804279,-113.5716399,Terwilleger South,1,neighbourhood,0.468,6.0d 06:00:00,D,1,B1,761_0,6.0
814_0_B1,43 AVE:111 - 122 ST,,5.0d 14:45:00,,53.47994354,-113.5290232,Royal Gardens,1,neighbourhood,1.1675,5.0d 06:00:00,D,1,B1,814_0,5.0
909_0_B1,203 Carmichael CL-#1160 to #1074 Carter Crest Rd.,,2.0d 14:45:00,,53.46483969,-113.5767544,Carter Crest,1,neighbourhood,0.272,2.0d 06:00:00,D,1,B1,909_0,2.0
950_0_B1,OGILVIE BLVD-OMAND DRIVE,,3.0d 14:45:00,,53.46343815,-113.5630866,Ogilvie Ridge,1,neighbourhood,0.6925,3.0d 06:00:00,D,1,B1,950_0,3.0
982_0_B1,Rabbit Hill road to behind #229 Ockenden Placee,,3.0d 14:45:00,,53.46164111,-113.566618,Ogilvie Ridge,1,neighbourhood,0.4305,3.0d 06:00:00,D,1,B1,982_0,3.0
1003_0_B1,1503 HASWELL CLOSE,,5.0d 14:45:00,,53.45033688,-113.5981467,Haddow,1,neighbourhood,0.294,5.0d 06:00:00,D,1,B1,1003_0,5.0
1016_0_B1,South side - CPR TRACKS - 111 ST,,2.0d 14:45:00,,53.481138124,-113.507437249,Rideau Park,1,roadway,1.1595,2.0d 06:00:00,D,1,B1,1016_0,2.0
1042_0_B1,from #484 MacEwan Road to #2733 Miles Place,,12.0d 14:45:00,,53.42625235,-113.5373578,MacEwan,1,neighbourhood,0.615,12.0d 06:00:00,D,1,B1,1042_0,12.0
1095_0_B1,South side - CPR TRACKS - Gateway Blvd South,,9.0d 14:45:00,,53.480068929,-113.494374941,Calgary Trail North,1,roadway,0.1735,9.0d 06:00:00,D,1,B1,1095_0,9.0
1149_0_B1,Calgry Trail South - 34 Ave. to 42 Ave.,,0.0d 14:45:00,,53.4715742,-113.4956654,Duggan,1,neighbourhood,1.591,0.0d 06:00:00,D,1,B1,1149_0,0.0
1150_0_B1,41A AVE - 123 ST,,9d 14:45:00,,53.48048827,-113.5481724,Aspen Gardens,1,neighbourhood,0.7975,0d 06:00:00,D,10,B1,1150_0,
1183_0_B1,WESTBROOK DRIVE-124 ST,,0.0d 14:45:00,,53.462898,-113.5440734,Westbrook Estate,1,neighbourhood,0.38,0.0d 06:00:00,D,1,B1,1183_0,0.0
1494_0_B1,28-29 AVE-125-126 ST,,0.0d 14:45:00,,53.45891079,-113.5467675,Blue Quill Estates,1,neighbourhood,0.688,0.0d 06:00:00,D,1,B1,1494_0,0.0
1547_0_B1,3803-105 ST,,0.0d 14:45:00,,53.47341421,-113.5000821,Duggan,1,neighbourhood,0.95,0.0d 06:00:00,D,1,B1,1547_0,0.0
1555_0_B1,1084 Tory Road - #217 Tory Crescent to Rabbit Hill Rd..,,12.0d 14:45:00,,53.45237812,-113.5670903,Terwilleger TOWNE,1,neighbourhood,0.696,12.0d 06:00:00,D,1,B1,1555_0,12.0
1575_0_B1,BURTON ROAD-BUTTERWORTH CLOSE,,4.0d 14:45:00,,53.47870978,-113.5631236,Bulyea Heights,1,neighbourhood,1.08,4.0d 06:00:00,D,1,B1,1575_0,4.0
1663_0_B1,SADDLEBACK RD. 111 - 119 ST,,7.0d 14:45:00,,53.46118388,-113.5182582,Sweet Grass,1,neighbourhood,3.25215,7.0d 06:00:00,D,1,B1,1663_0,7.0
1691_0_B1,56 AVE-141-145 ST,,2.0d 14:45:00,,53.49349408,-113.5673686,Brookside,1,neighbourhood,0.395,2.0d 06:00:00,D,1,B1,1691_0,2.0
1711_0_B1,Windermere Dr. Windermere Blv. - 67 Windermere Dr walkway & from 67 Windemere Drive to 403 - 181 St,,5.0d 14:45:00,,53.43508963,-113.6325826,Windermere South,1,neighbourhood,0.3765,5.0d 06:00:00,D,1,B1,1711_0,5.0
1757_0_B1,403 REEVES CRESENT-RIVERBEND ROAD,,2.0d 14:45:00,,53.47366247,-113.5892026,Rhatigan Ridge,1,neighbourhood,0.479,2.0d 06:00:00,D,1,B1,1757_0,2.0
1788_0_B1,144 ST-53-60 AVE,,2.0d 14:45:00,,53.49467404,-113.5709562,Brookside,1,neighbourhood,0.743,2.0d 06:00:00,D,1,B1,1788_0,2.0
1805_0_B1,Terwilleger Drive: Rabbit Hill Road to 40 Ave.,,1.0d 14:45:00,,53.47225564,-113.5782594,Bulyea Heights,1,roadway,1.0765,1.0d 06:00:00,D,1,B1,1805_0,1.0
1816_0_B1,147 ST-45-51 AVE,,3.0d 14:45:00,,53.48626437,-113.5731096,Ramsey Heights,1,neighbourhood,0.2815,3.0d 06:00:00,D,1,B1,1816_0,3.0
1831_0_B1,125 ST-62 AVE,,7.0d 14:45:00,,53.50102494,-113.5538245,Grandview Heights,1,neighbourhood,0.438,7.0d 06:00:00,D,1,B1,1831_0,7.0
1858_0_B1,58 AVE-WHITEMUD DRIVE-BRANDER DRIVE,,3.0d 14:45:00,,53.49595387,-113.5786278,Brander Gardens,1,neighbourhood,0.3075,3.0d 06:00:00,D,1,B1,1858_0,3.0
1871_0_B1,BULYEA ROAD-#900 BURLEY DRIVE,,3.0d 14:45:00,,53.47207201,-113.5684263,Bulyea Heights,1,neighbourhood,0.267,3.0d 06:00:00,D,1,B1,1871_0,3.0
1904_0_B1,West side 111 ST: 40 AVE - WHITEMUD DRIVE,,2.0d 14:45:00,,53.476950065,-113.516986961,Royal Gardens,1,roadway,0.1965,2.0d 06:00:00,D,1,B1,1904_0,2.0
1909_0_B1,Rabbit Hill rd. - MacTaggart Drive/Rabbit Hill Rd: 23 AVE - TERWILLEGAR BLVD,,12.0d 14:45:00,,53.4473819,-113.5655477,MacTaggert/McGrath,1,neighbourhood,0.412,12.0d 06:00:00,D,1,B1,1909_0,12.0
1917_0_B1,HEATH ROAD & RIVERBEND ROAD,,3.0d 14:45:00,,53.46096072,-113.5969005,Haddow,1,neighbourhood,0.5945,3.0d 06:00:00,D,1,B1,1917_0,3.0
1919_0_B1,122 st - Cambell Bridge,,7.0d 14:45:00,,53.50413648,-113.5460037,River Valley Whitemud,1,neighbourhood,0.95,7.0d 06:00:00,D,1,B1,1919_0,7.0
1951_0_B1,(#1510)119 St & Twin Brooks Close,,1.0d 14:45:00,,53.44964893,-113.5379768,Twin Brooks,1,neighbourhood,1.1955,1.0d 06:00:00,D,1,B1,1951_0,1.0
1956_0_B1,29 Avenue - 119 St. to 126 Street,,5.0d 14:45:00,,53.46157156,-113.5422988,Blue Quill Estates,1,neighbourhood,0.8,5.0d 06:00:00,D,1,B1,1956_0,5.0
1990_0_B1,119 ST-WESTBROOK DRIVE-23AVE,,1.0d 14:45:00,,53.46759644,-113.5038615,Blue Quill,1,roadway,0.6205,1.0d 06:00:00,D,1,B1,1990_0,1.0
1995_0_B1,358 HEATH ROAD - DRY POND,,3.0d 14:45:00,,53.4573543,-113.5977432,Haddow,1,neighbourhood,0.3765,3.0d 06:00:00,D,1,B1,1995_0,3.0
1997_0_B1,N/Center/S side 34 Ave.: 111St to Calgary Trail,,8.0d 14:45:00,,53.46689691,-113.5068298,Steinhauer/Duggan,1,roadway,0.61535,8.0d 06:00:00,D,1,B1,1997_0,8.0
2009_0_B1,15515-58 AVE,,4.0d 14:45:00,,53.49623875,-113.5877917,Brander Gardens,1,neighbourhood,0.1915,4.0d 06:00:00,D,1,B1,2009_0,4.0
2032_0_B1,Ellerslie Road East of 111 St,,12.0d 14:45:00,,53.42439209,-113.5110578,Blackmud Creek,1,neighbourhood,0.4615,12.0d 06:00:00,D,1,B1,2032_0,12.0
2074_0_B1,14141 - Fox Drive,,3.0d 14:45:00,,53.50080356,-113.5631143,River Valley Whitemud,1,neighbourhood,1.644,3.0d 06:00:00,D,1,B1,2074_0,3.0
2087_0_B1,Calgary Trail W/S: 31 Ave - 34 Ave,,8.0d 14:45:00,,53.465813671,-113.496226484,CALGARY TRAIL SOUTH,1,roadway,1.2755,8.0d 06:00:00,D,1,B1,2087_0,8.0
2106_0_B1,Gateway Boulevard to 102 St - 19 Ave.to 12 Ave,,9.0d 14:45:00,,53.46126963,-113.4918437,South Edmonton Common,1,roadway,0.375,9.0d 06:00:00,D,1,B1,2106_0,9.0
2163_0_B1,9 Ave. - 110 St to 107 St.,,6.0d 14:45:00,,53.4249641,-113.5076322,Richford,1,neighbourhood,0.25,6.0d 06:00:00,D,1,B1,2163_0,6.0
2170_0_B1,Rutherford Rd & 16ave SW,,10.0d 14:45:00,,53.41853583,-113.5296777,Rutherford,1,neighbourhood,0.348,10.0d 06:00:00,D,1,B1,2170_0,10.0
2183_0_B1,51 AVE ALLERD WAY - 110 ST,,9d 14:45:00,,53.48935209,-113.4990454,Pleasantview,1,neighbourhood,0.5045,0d 06:00:00,D,10,B1,2183_0,
2184_0_B1,23 AVE-111-119 ST,,9.0d 14:45:00,,53.4541648,-113.5252887,Blue Quill,1,roadway,1.5,9.0d 06:00:00,D,1,B1,2184_0,9.0
2247_0_B1,9B AVE/116-119 ST,,3.0d 14:45:00,,53.43956223,-113.5365761,Twin Brooks,1,neighbourhood,0.1725,3.0d 06:00:00,D,1,B1,2247_0,3.0
2251_0_B1,"RIVERBEND ROAD-WEST TO RAVINE, West end of pipeline to Anthony Henday Bridge",,4.0d 14:45:00,,53.46169964,-113.6004013,Henderson,1,neighbourhood,1.3775,4.0d 06:00:00,D,1,B1,2251_0,4.0
2256_0_B1,Terwilleger Drive - BULYEA RD - 558 BUCHANAN RD,,1.0d 14:45:00,,53.4675247,-113.5769858,Bulyea Heights,1,roadway,0.279,1.0d 06:00:00,D,1,B1,2256_0,1.0
2324_0_B1,OGILVIE BOULEVARD-OSLAND DRIVE,,3.0d 14:45:00,,53.46295301,-113.5607303,Ogilvie Ridge,1,neighbourhood,1.175,3.0d 06:00:00,D,1,B1,2324_0,3.0
2346_0_B1,10935 - 6 AVE SW & 8 Ave. - 108 St. SW,,6.0d 14:45:00,,53.42646119,-113.5086368,Richford,1,neighbourhood,0.344,6.0d 06:00:00,D,1,B1,2346_0,6.0
2361_0_B1,Whitemud Drive - Fox Drive,,3.0d 14:45:00,,53.50331082,-113.5661867,River Valley Whitemud,1,neighbourhood,2.4452,3.0d 06:00:00,D,1,B1,2361_0,3.0
2370_0_B1,119 St: Twin Brooks Way - 9B Ave,,5.0d 14:45:00,,53.44282737,-113.5407779,Twin Brooks,1,neighbourhood,1.0,5.0d 06:00:00,D,1,B1,2370_0,5.0
2408_0_B1,"111 ST-23 Ave. to Saddleback Road (29A Ave.), Saddlebak Rd.",,8.0d 14:45:00,,53.45719948,-113.5169395,Blue Quill/Ermineskin,1,roadway,1.0775,8.0d 06:00:00,D,1,B1,2408_0,8.0
2414_0_B1,HENDERSON ST-E OF HEPBURN AVE,,6.0d 14:45:00,,53.4681872,-113.59682,Henderson,1,neighbourhood,2.0605,6.0d 06:00:00,D,1,B1,2414_0,6.0
2502_0_B1,39A AVE - ASPEN DRIVE WEST,,0.0d 14:45:00,,53.47479387,-113.5516172,Aspen Gardens,1,neighbourhood,0.22,0.0d 06:00:00,D,1,B1,2502_0,0.0
2531_0_B1,1650 Melrose Place,,12.0d 14:45:00,,53.4319483,-113.5318355,MacEwan,1,neighbourhood,0.4,12.0d 06:00:00,D,1,B1,2531_0,12.0
2537_0_B1,47 AVE-52B AVE,,4.0d 14:45:00,,53.48655979,-113.5521502,Lansdowne,1,neighbourhood,0.639,4.0d 06:00:00,D,1,B1,2537_0,4.0
2559_0_B1,111 ST: 40 AVE to WHITEMUD DRIVE,,8.0d 14:45:00,,53.47994832,-113.5154949,Rideau Park,1,roadway,1.5335,8.0d 06:00:00,D,1,B1,2559_0,8.0
2567_0_B1,45 Ave. to 40 Ave. East of 147 St.,,2.0d 14:45:00,,53.48066572,-113.5729237,Ramsey Heights,1,roadway,1.075,2.0d 06:00:00,D,1,B1,2567_0,2.0
2572_0_B1,ADJACENT/BEHIND #729 BLACKWOOD CR.,,6.0d 14:45:00,,53.42905014,-113.5005662,Blackburne,1,neighbourhood,0.5,6.0d 06:00:00,D,1,B1,2572_0,6.0
2604_0_B1,High Level Bridge to Pumping Station,,6.0d 14:45:00,,53.52840712,-113.5161759,RiverValley Walterdale,1,neighbourhood,0.296,6.0d 06:00:00,D,1,B1,2604_0,6.0
2635_0_B1,Windermere Blvd & Watson Landing,,3.0d 14:45:00,,53.43809452,-113.626929,Windermere,1,neighbourhood,0.7385,3.0d 06:00:00,D,1,B1,2635_0,3.0
2663_0_B1,156 St. to Riverbend Road,,3.0d 14:45:00,,53.46168881,-113.5921063,Falconer Heights,1,neighbourhood,0.5,3.0d 06:00:00,D,1,B1,2663_0,3.0
2779_0_B1,34 AVE 111 - 119 ST,,8.0d 14:45:00,,53.46700039,-113.5282546,Greenfield,1,roadway,1.0368,8.0d 06:00:00,D,1,B1,2779_0,8.0
2783_0_B1,1331& 1333 RUTHERFORD ROAD,,10.0d 14:45:00,,53.42004531,-113.5343542,Rutherford,1,neighbourhood,1.4,10.0d 06:00:00,D,1,B1,2783_0,10.0
2826_0_B1,1697 Toane WYND,,5.0d 14:45:00,,53.44666423,-113.5880112,Terwilleger TOWNE,1,neighbourhood,0.5,5.0d 06:00:00,D,1,B1,2826_0,5.0
2827_0_B1,Hayworth Crescent to Hudson Boulevard/Rabbit Hill Road - Trans Alta R.O.W. to Hodgson Blv.,,6.0d 14:45:00,,53.4606655,-113.5639836,Hodgson,1,neighbourhood,0.2725,6.0d 06:00:00,D,1,B1,2827_0,6.0
2835_0_B1,Ellerslie Rd (9 Ave. SW) N. & Center - SCHOOL to 111 Street,,6.0d 14:45:00,,53.42502398,-113.5198188,MacEwan,1,neighbourhood,0.2,6.0d 06:00:00,D,1,B1,2835_0,6.0
2875_0_B1,504 HODGSON ROAD & HODGSON BOULEVARD,,6.0d 14:45:00,,53.46002767,-113.557942,Hodgson,1,neighbourhood,0.2585,6.0d 06:00:00,D,1,B1,2875_0,6.0
2997_0_B1,55 AVE-143 ST,,3.0d 14:45:00,,53.49160219,-113.5693168,Brookside,1,neighbourhood,1.577,3.0d 06:00:00,D,1,B1,2997_0,3.0
2998_0_B1,5803-148 ST,,3.0d 14:45:00,,53.49441798,-113.5738646,Brander Gardens,1,neighbourhood,0.298,3.0d 06:00:00,D,1,B1,2998_0,3.0
3003_0_B1,45 AVE-132 ST,,9d 14:45:00,,53.48413627,-113.558145,Whitemud Creek Ravine North,1,neighbourhood,0.5835,0d 06:00:00,D,10,B1,3003_0,
3077_0_B1,7085 South Terwilleger Drive,,4.0d 14:45:00,,53.44033541,-113.5719223,Terwilleger South,1,neighbourhood,0.74,4.0d 06:00:00,D,1,B1,3077_0,4.0
3249_0_B1,W/S & C 111 ST: 23 AVE - BRIDGE (RAVINE),,9.0d 14:45:00,,53.447934039,-113.516023976,BLACKMUD CREEK RAVINE,1,roadway,0.5455,9.0d 06:00:00,D,1,B1,3249_0,9.0
3339_0_B1,111 ST - 40 AVE - 34AVE,,2.0d 14:45:00,,53.469738257,-113.517056628,GREENFIELD,1,roadway,0.1715,2.0d 06:00:00,D,1,B1,3339_0,2.0
3350_0_B1,111 ST: BRIDGE (RAVINE) - South to 9 AVE & bus stop,,9.0d 14:45:00,,53.44303232,-113.5176947,Twin Brooks,1,roadway,0.7785,9.0d 06:00:00,D,1,B1,3350_0,9.0
3371_0_B1,111 ST - 34 AVE - 29A AVE/Saddleback RD,,8.0d 14:45:00,,53.464060026,-113.517121623,Sweet Grass,1,roadway,1.048,8.0d 06:00:00,D,1,B1,3371_0,8.0
3378_0_B1,2007 - Leger Road,,5.0d 14:45:00,,53.45546943,-113.5804006,Leger,1,neighbourhood,0.7615,5.0d 06:00:00,D,1,B1,3378_0,5.0
3444_0_B1,Tory Rd. - Tory Gate to Behind #2431 Tegler Green,,10.0d 14:45:00,,53.45057907,-113.5716099,Terwilleger TOWNE,1,neighbourhood,1.15,10.0d 06:00:00,D,1,B1,3444_0,10.0
3499_0_B1,53 AVE-RIVERBEND ROAD,,8.0d 14:45:00,,53.49231021,-113.5754612,Brander Gardens,1,neighbourhood,3.7255,8.0d 06:00:00,D,1,B1,3499_0,8.0
3514_0_B1,across from #509 - to #455 Heffeerman Dr.,,7.0d 14:45:00,,53.47368916,-113.601687,Henderson,1,neighbourhood,0.167,7.0d 06:00:00,D,1,B1,3514_0,7.0
3527_0_B1,23 AVE-104-111 ST,,0.0d 14:45:00,,53.45432673,-113.5031819,Ermineskin,1,roadway,1.616,0.0d 06:00:00,D,1,B1,3527_0,0.0
3540_0_B1,RHATIGAN ROAD EAST-RIVERBEND ROAD,,0.0d 14:45:00,,53.47417407,-113.5851729,Rhatigan Ridge,1,neighbourhood,3.5155,0.0d 06:00:00,D,1,B1,3540_0,0.0
3544_0_B1,1765 Tomlinson Common,,5.0d 14:45:00,,53.44893029,-113.5850845,Terwilleger TOWNE,1,neighbourhood,1.5355,5.0d 06:00:00,D,1,B1,3544_0,5.0
3552_0_B1,Todd Landing to Talor Close,,4.0d 14:45:00,,53.44867113,-113.5741307,Terwilleger TOWNE,1,neighbourhood,5.7665,4.0d 06:00:00,D,1,B1,3552_0,4.0
3552_0_B1,Todd Landing to Talor Close,,4.0d 14:45:00,,53.44867113,-113.5741307,Terwilleger TOWNE,1,neighbourhood,5.7665,4.0d 06:00:00,D,1,B1,3552_0,4.0
3579_0_B1,Rabbit Hill Rd - Mullen Rd,,5.0d 14:45:00,,53.43852136,-113.5689186,Magrath,1,neighbourhood,1.3565,5.0d 06:00:00,D,1,B1,3579_0,5.0
3685_0_B1,Ellerslie Road & Gateway Boulevard,,9.0d 14:45:00,,53.40804985,-113.5015587,Ellerslie Industrial,1,roadway,0.622,9.0d 06:00:00,D,1,B1,3685_0,9.0
3754_0_B1,TRANS ALTA R.O.W. to #907 Hollingsworth Bend,,6.0d 14:45:00,,53.45718006,-113.5531177,Hodgson,1,neighbourhood,0.6535,6.0d 06:00:00,D,1,B1,3754_0,6.0
3770_0_B1,503 HODGSON ROAD & HODGSON BOULEVARD,,5.0d 14:45:00,,53.45832421,-113.5585573,Hodgson,1,neighbourhood,1.728,5.0d 06:00:00,D,1,B1,3770_0,5.0
3802_0_B1,150 ST-51-58 AVE,,3.0d 14:45:00,,53.49270487,-113.5802592,Brander Gardens,1,neighbourhood,0.25,3.0d 06:00:00,D,1,B1,3802_0,3.0
3834_0_B1,North side CPR TRACKS - 106 ST,,9.0d 14:45:00,,53.480840188,-113.497345967,Empire Park,1,roadway,0.2525,9.0d 06:00:00,D,1,B1,3834_0,9.0
3850_0_B1,BTWN 4237 & 4233 TERWILLEGER VISTA,,6.0d 14:45:00,,53.44785208,-113.5826431,Terwilleger TOWNE,1,neighbourhood,0.5915,6.0d 06:00:00,D,1,B1,3850_0,6.0
3857_0_B1,745 Leger Way/765 Leger WAY/Leger Rd - 23 Ave to Leger Way,,7.0d 14:45:00,,53.45868831,-113.5819213,Leger,1,neighbourhood,3.6595,7.0d 06:00:00,D,1,B1,3857_0,7.0
3864_0_B1,(Bearspaw Drive West)11-15 AVE & 109-110A ST,,6.0d 14:45:00,,53.44307737,-113.5081567,Bearspaw,1,neighbourhood,2.17,6.0d 06:00:00,D,1,B1,3864_0,6.0
3884_0_B1,TERWILLEGAR DR - TRANSALTA RIGHT OF WAY,,2.0d 14:45:00,,53.466594288,-113.57476875,Leger,1,roadway,0.2375,2.0d 06:00:00,D,1,B1,3884_0,2.0
3942_0_B1,BULYEA ROAD - TRANSALTA RIGHT OF WAY,,2.0d 14:45:00,,53.46441683,-113.5707061,Ogilvie Ridge,1,roadway,0.821,2.0d 06:00:00,D,1,B1,3942_0,2.0
3973_0_B1,behind #1246 McAllister Way to MacEwan Road,,10.0d 14:45:00,,53.42951061,-113.5308588,MacEwan,1,neighbourhood,1.4255,10.0d 06:00:00,D,1,B1,3973_0,10.0
4069_0_B1,Various,,10.0d 14:45:00,,53.42876143,-113.534152,MacEwan,1,neighbourhood,2.217,10.0d 06:00:00,D,1,B1,4069_0,10.0
4116_0_B1,Behind #1544 Blackmore Way Sw,,10.0d 14:45:00,,53.41808665,-113.5030939,Blackmud Creek,1,neighbourhood,0.3695,10.0d 06:00:00,D,1,B1,4116_0,10.0
4149_0_B1,James Mowat Tr - Rutherford Road,,10.0d 14:45:00,,53.42102786,-113.516886,Rutherford,1,neighbourhood,0.75,10.0d 06:00:00,D,1,B1,4149_0,10.0
4151_0_B1,"11 AVE-108 ST, Bearspaw Drive East to Pipeline R.O.W.",,6.0d 14:45:00,,53.44370508,-113.5042992,Bearspaw,1,neighbourhood,0.379,6.0d 06:00:00,D,1,B1,4151_0,6.0
4203_0_B1,from 351 Magrath Blv. To 3816 MacNeil Heath,,12.0d 14:45:00,,53.44646359,-113.5586639,MacTaggert,1,neighbourhood,0.412,12.0d 06:00:00,D,1,B1,4203_0,12.0
4254_0_B1,23 AVE-111-119 ST,,9.0d 14:45:00,,53.45382971,-113.524939,Skyrattler,1,roadway,0.5,9.0d 06:00:00,D,1,B1,4254_0,9.0
4304_0_B1,41 AVE-ASPEN DRIVE WEST,,0.0d 14:45:00,,53.47717103,-113.552654,Aspen Gardens,1,neighbourhood,0.34,0.0d 06:00:00,D,1,B1,4304_0,0.0
4330_0_B1,Ambleside Drive - Armitage Cescent,,3.0d 14:45:00,,53.43232913,-113.6038227,Ambleside,1,neighbourhood,0.9705,3.0d 06:00:00,D,1,B1,4330_0,3.0
4357_0_B1,Rabbit Hill Road - Terwillegar Drive,,2.0d 14:45:00,,53.46160218,-113.5773678,Carter Crest,1,neighbourhood,0.73,2.0d 06:00:00,D,1,B1,4357_0,2.0
4380_0_B1,Blackmud Creek Dr.:111 St - 975 Blackmud Creek Cr.,,6.0d 14:45:00,,53.4195739,-113.5143997,Blackmud Creek,1,neighbourhood,3.1105,6.0d 06:00:00,D,1,B1,4380_0,6.0
4395_0_B1,James Mowat Trail (111 St.) to Rutherford Road -Blackmud Creek Drive to 21 Ave. SW,,4.0d 14:45:00,,53.41799558,-113.5193239,Rutherford,1,neighbourhood,2.5,4.0d 06:00:00,D,1,B1,4395_0,4.0
4451_0_B1,23 Ave. - Rabbit Hill rd.,,2.0d 14:45:00,,53.4549988,-113.5794313,Terwilleger TOWNE,1,roadway,0.714,2.0d 06:00:00,D,1,B1,4451_0,2.0
4462_0_B1,29A AVE-104-111 ST,,3.0d 14:45:00,,53.46158341,-113.5056006,Steinhauer,1,neighbourhood,3.186,3.0d 06:00:00,D,1,B1,4462_0,3.0
4517_0_B1,Allard Link & Adamson Dr,,10.0d 14:45:00,,53.40280072,-113.5180914,Allard,1,neighbourhood,0.6625,10.0d 06:00:00,D,1,B1,4517_0,10.0
4528_0_B1,156st & South Terwillegar Blvd,,5.0d 14:45:00,,53.44023714,-113.5837237,Terwillegar South,1,neighbourhood,0.6615,5.0d 06:00:00,D,1,B1,4528_0,5.0
4542_0_B1,4032 Mactaggert Drive,,6.0d 14:45:00,,53.43886273,-113.5612599,MacTaggert,1,neighbourhood,0.269,6.0d 06:00:00,D,1,B1,4542_0,6.0
4590_0_B1,2035 Armitage Green SW,,5.0d 14:45:00,,53.4298755,-113.6043016,Ambleside,1,neighbourhood,0.3725,5.0d 06:00:00,D,1,B1,4590_0,5.0
4668_0_B1,Whitelaw Gate - 3250 Whitelaw Drive & Btw. 3427 West Landing & 3320 West Court,,4.0d 14:45:00,,53.44298834,-113.6089682,Windermere North,1,neighbourhood,0.427,4.0d 06:00:00,D,1,B1,4668_0,4.0
4679_0_B1,4032 Mactaggert Drive,,6.0d 14:45:00,,53.44011896,-113.5627694,MacTaggert,1,neighbourhood,0.331,6.0d 06:00:00,D,1,B1,4679_0,6.0
4754_0_B1,23 Ave. - Rabbit Hill Road to Bridge,,6.0d 14:45:00,,53.45423656,-113.5605874,Hodgson,1,roadway,0.2725,6.0d 06:00:00,D,1,B1,4754_0,6.0
4755_0_B1,Road Buffer 23 Ave.- Terwilleger Drive to Rabbit Hill Road,,3.0d 14:45:00,,53.45499923,-113.577384,Leger,1,roadway,0.657,3.0d 06:00:00,D,1,B1,4755_0,3.0
5083_0_B1,Maynard Way to 4132 Mactaggert Drive,,6.0d 14:45:00,,53.44279028,-113.5581513,MacTaggert,1,neighbourhood,0.9,6.0d 06:00:00,D,1,B1,5083_0,6.0
5544_0_B1,South Terwillegar Dr & Shaske Dr,,4.0d 14:45:00,,53.43681285,-113.5782311,Terwillegar South,1,neighbourhood,1.217,4.0d 06:00:00,D,1,B1,5544_0,4.0
5545_0_B1,156st & South Terwillegar Blvd,,4.0d 14:45:00,,53.43914772,-113.5855744,Terwillegar South,1,neighbourhood,0.358,4.0d 06:00:00,D,1,B1,5545_0,4.0
6026_0_B1,2069 HADDOW DRIVE,,5.0d 14:45:00,,53.45361451,-113.595946,Haddow,1,neighbourhood,3.884,5.0d 06:00:00,D,1,B1,6026_0,5.0
7047_0_B1,171 Street - Wasburn Drive,,3.0d 14:45:00,,53.43026811,-113.6181138,Windermere,1,neighbourhood,0.627,3.0d 06:00:00,D,1,B1,7047_0,3.0
7048_0_B1,Terwillegar Common & Towne Center Blvd,,6.0d 14:45:00,,53.44557411,-113.5760306,Terwilleger TOWNE,1,neighbourhood,0.307,6.0d 06:00:00,D,1,B1,7048_0,6.0
7269_0_B1,141 St south past park NEW,,9d 14:45:00,,53.4062438,-113.5707427,Chappelle Gardens,1,neighbourhood,0.8965,0d 06:00:00,D,10,B1,7269_0,
7409_0_B1,Mullen Rd & Mullen Way NEW,,6.0d 14:45:00,,53.43527717,-113.5699569,MacTaggert,1,neighbourhood,0.45,6.0d 06:00:00,D,1,B1,7409_0,6.0
7469_0_B1,#1524 Rutherford Road,,10.0d 14:45:00,,53.415095585,-113.537049321,Rutherford,1,neighbourhood,0.4658,10.0d 06:00:00,D,1,B1,7469_0,10.0
7569_0_B1,Ellerslie Road - 100 Street SW,,6.0d 14:45:00,,53.42584743,-113.4918388,Ellerslie SW,1,roadway,0.5055,6.0d 06:00:00,D,1,B1,7569_0,6.0
7649_0_B1,51 Ave - 11504 St,,6.0d 14:45:00,,53.48884512,-113.5305284,Lendrum Place,1,neighbourhood,0.609,6.0d 06:00:00,D,1,B1,7649_0,6.0
7913_0_B1,Adamson Dr SW & Adamson Terrace SW,,0.0d 14:45:00,,53.39985703,-113.5160464,Allard,1,neighbourhood,0.3325,0.0d 06:00:00,D,1,B1,7913_0,0.0
7953_0_B1,Chappelle Blvd & 28ave SW,,10.0d 14:45:00,,53.40961566,-113.5725276,Chappelle,1,neighbourhood,0.3955,10.0d 06:00:00,D,1,B1,7953_0,10.0
8099_0_B1,30ave SW & Allard Gate SW,,4.0d 14:45:00,,53.40340524,-113.5331111,Allard,1,neighbourhood,0.5495,4.0d 06:00:00,D,1,B1,8099_0,4.0
8466_0_B1,Wheaton Drive - Windermere Wynd,,3.0d 14:45:00,,53.44601712,-113.6187991,Windermere,1,neighbourhood,0.2325,3.0d 06:00:00,D,1,B1,8466_0,3.0
8645_0_B1,10 AVE & 107 ST TO 104 ST & 19 AVE,,9d 14:45:00,,53.44587489,-113.4974082,Bearspaw,1,neighbourhood,0.6195,0d 06:00:00,D,10,B1,8645_0,
8648_0_B1,Bearspaw Lake to 104 St &20 Ave,,6.0d 14:45:00,,53.44567646,-113.5040594,Bearspaw,1,neighbourhood,2.5,6.0d 06:00:00,D,1,B1,8648_0,6.0
9126_0_B1,Allard Blvd - Agar Green SW,,10.0d 14:45:00,,53.40001977,-113.5283453,Allard,1,neighbourhood,0.3735,10.0d 06:00:00,D,1,B1,9126_0,10.0
9646_0_B1,6004 Currents Drive (Behind Cabela's),,4.0d 14:45:00,,53.439613525,-113.60487388,Ambleside,1,neighbourhood,0.3165,4.0d 06:00:00,D,1,B1,9646_0,4.0
981890_0_B1,7000 143 Street NW,,3.0d 14:45:00,,53.50133909,-113.5795463,River Valley Whitemud,1,neighbourhood,0.488,3.0d 06:00:00,D,1,B1,981890_0,3.0
9965_0_B1,116 ST - KEILOR ROAD,,7.0d 14:45:00,,53.507653935,-113.540868636,Belgravia/River Valley Whitemud,1,neighbourhood,1.3695,7.0d 06:00:00,D,1,B1,9965_0,7.0
9966_0_B1,BOULEVARD & TOP OF BANK WALKWAY,,10.0d 14:45:00,,53.416053641,-113.512862812,Blackmud Creek,1,neighbourhood,0.535,10.0d 06:00:00,D,1,B1,9966_0,10.0
9994_0_B1,SWMF - 4163 Whispering River Drive,,3.0d 14:45:00,,53.450936001,-113.613811019,Windermere,1,neighbourhood,0.1895,3.0d 06:00:00,D,1,B1,9994_0,3.0
9999_0_B1,SWMF 5114 Woolsey Link,,3.0d 14:45:00,,53.448671382,-113.611819629,Windermere,1,neighbourhood,0.5825,3.0d 06:00:00,D,1,B1,9999_0,3.0
10008_0_B1,East of Whispering River Dr.,,3.0d 14:45:00,,53.450275686,-113.609523269,Windermere,1,neighbourhood,0.2291,3.0d 06:00:00,D,1,B1,10008_0,3.0
10018_0_B1,738 Windermere Wynd,,3.0d 14:45:00,,53.441214417,-113.626032458,Windermere,1,neighbourhood,0.2605,3.0d 06:00:00,D,1,B1,10018_0,3.0
10032_0_B1,3604 Allan Dr SW,,5.0d 14:45:00,,53.42862657,-113.594079171,Ambleside,1,neighbourhood,0.33,5.0d 06:00:00,D,1,B1,10032_0,5.0
10033_0_B1,3346 Cutler Crescent,,10.0d 14:45:00,,53.40656046,-113.566904756,Chappelle Area,1,neighbourhood,0.277,10.0d 06:00:00,D,1,B1,10033_0,10.0
10075_0_B1,17 St and 28 Ave NW,,4.0d 14:45:00,,53.46065597,-113.3685558,Tamarack,1,neighbourhood,0.2325,4.0d 06:00:00,D,1,B1,10075_0,4.0
10085_0_B1,1137 Chappelle Blvd SW,,10.0d 14:45:00,,53.40598414,-113.5730267,Chappele Area,1,neighbourhood,0.617,10.0d 06:00:00,D,1,B1,10085_0,10.0
10092_0_B1,16 Ave NW on both sides of Whispering River Dr NW,,4.0d 14:45:00,,53.44669002,-113.6096593,Windermere,1,neighbourhood,0.1795,4.0d 06:00:00,D,1,B1,10092_0,4.0
10104_0_B1,5280 Chappelle Road SW,,10.0d 14:45:00,,53.40102631,-113.5725043,Chappele Area,1,neighbourhood,0.579,10.0d 06:00:00,D,1,B1,10104_0,10.0
181.0_1_B1,109 AVE-65 ST,,12.0d 14:45:00,,53.5572473,-113.4252652,CAPILANO,1,neighbourhood,0.55,12.0d 06:00:00,D,1,B1,181.0_1,12.0
270.0_1_B1,89 Ave & 71 St,,18.0d 14:45:00,,53.52290707,-113.4354382,KENILWORTH,1,neighbourhood,2.255,18.0d 06:00:00,D,1,B1,270.0_1,18.0
309.0_1_B1,82 ST-103 AVE,,17.0d 14:45:00,,53.54472687,-113.4532601,FOREST HEIGHTS,1,neighbourhood,0.84,17.0d 06:00:00,D,1,B1,309.0_1,17.0
511.0_1_B1,85 ST-STRATHEARN DRIVE,,17.0d 14:45:00,,53.53669821,-113.4618982,CLOVERDALE,1,neighbourhood,4.0115,17.0d 06:00:00,D,1,B1,511.0_1,17.0
568.0_1_B1,50 ST BTWN 76 & 82 AVE,,17.0d 14:45:00,,53.51698107,-113.4182013,GAINER INDUSTRIAL,1,neighbourhood,0.1975,17.0d 06:00:00,D,1,B1,568.0_1,17.0
590.0_1_B1,47 ST & 106B AVE,,19.0d 14:45:00,,53.55320893,-113.4135622,GOLD BAR,1,neighbourhood,0.765,19.0d 06:00:00,D,1,B1,590.0_1,19.0
596.0_1_B1,50 St: 70 Ave - Whitemud Drive Whitemud Drive,,16.0d 14:45:00,,53.49914123,-113.4180896,PYLYPOW INDUSTRIAL,1,roadway,0.444,16.0d 06:00:00,D,1,B1,596.0_1,16.0
597.0_1_B1,W/S 76 ST: 38 AVE - WHITEMUD DRIVE,,14.0d 14:45:00,,53.48042908,-113.4525123,TWEDDLE PLACE,1,roadway,1.197,14.0d 06:00:00,D,1,B1,597.0_1,14.0
777.0_1_B1,Road Allowance,,17.0d 14:45:00,,53.44096431,-113.3942473,CRAWFORD PLAINS,1,roadway,0.985,17.0d 06:00:00,D,1,B1,777.0_1,17.0
789.0_1_B1,NORTH SIDE 28 AVE & LAKEWOOD RD WEST -,,17.0d 14:45:00,,53.45895751,-113.4568045,TIPASKAN,1,roadway,0.1715,17.0d 06:00:00,D,1,B1,789.0_1,17.0
883.0_1_B1,9812 96A Street NW,,18.0d 14:45:00,,53.53870576,-113.4795739,CLOVERDALE,1,neighbourhood,3.5,18.0d 06:00:00,D,1,B1,883.0_1,18.0
947.0_1_B1,ARGYLL RD N/S BTWN 86 ST & 83 ST,,19.0d 14:45:00,,53.50190593,-113.4560504,ARGYLL,1,neighbourhood,0.31,19.0d 06:00:00,D,1,B1,947.0_1,19.0
976.0_1_B1,SOUTH SIDE 23 AVE BTWN 38-34 ST,,15.0d 14:45:00,,53.45366325,-113.3962258,BISSET,1,roadway,0.635,15.0d 06:00:00,D,1,B1,976.0_1,15.0
979.0_1_B1,WEST SIDE MILLWOODS RD-BTWN-28-23 AVE,,17.0d 14:45:00,,53.45526058,-113.448311,MEYONOHK,1,roadway,0.343,17.0d 06:00:00,D,1,B1,979.0_1,17.0
996.0_1_B1,GREENOCH CRESCENT-W 50 ST-GOLF COURS,,11.0d 14:45:00,,53.47794898,-113.4207306,GREENVIEW,1,neighbourhood,0.3,11.0d 06:00:00,D,1,B1,996.0_1,11.0
1313.0_1_B1,37-38 AVE & 32-34 ST,,13.0d 14:45:00,,53.47213596,-113.3919408,LARKSPUR,1,neighbourhood,0.8,13.0d 06:00:00,D,1,B1,1313.0_1,13.0
1450.0_1_B1,BTWN-85-91 ST,,20.0d 14:45:00,,53.46912852,-113.4624634,RICHFIELD,1,neighbourhood,1.0835,20.0d 06:00:00,D,1,B1,1450.0_1,20.0
1493.0_1_B1,EAST OF 80 ST & SOUTH OF 10 AVE,,20d 14:45:00,,53.43871656,-113.4530145,MENISA,1,neighbourhood,1.12,20d 06:00:00,D,10,B1,1493.0_1,
1612.0_1_B1,MILLBOURNE ROAD E-70 ST,,20.0d 14:45:00,,53.4792581,-113.4489091,MICHAELS PARK,1,neighbourhood,3.75,20.0d 06:00:00,D,1,B1,1612.0_1,20.0
1623.0_1_B1,NORTH SIDE 23 AVE-BTWN MILLWOODS RD E- 38 ST,,14.0d 14:45:00,,53.45485526,-113.4033495,BISSET,1,roadway,0.9,14.0d 06:00:00,D,1,B1,1623.0_1,14.0
1778.0_1_B1,11 AVE-58 ST,,19.0d 14:45:00,,53.44264997,-113.4290041,SAKAW,1,neighbourhood,2.215,19.0d 06:00:00,D,1,B1,1778.0_1,19.0
1814.0_1_B1,43A AVE - WHITEMUD DRIVE WEST OF 23 ST,,11.0d 14:45:00,,53.48249405,-113.3806965,LARKSPUR,1,neighbourhood,1.55,11.0d 06:00:00,D,1,B1,1814.0_1,11.0
1825.0_1_B1,76 AVE & 89 - 95 ST,,13.0d 14:45:00,,53.51228056,-113.4682563,MILL CREEK RAVINE SOUTH,1,neighbourhood,0.2285,13.0d 06:00:00,D,1,B1,1825.0_1,13.0
1837.0_1_B1,SOUTH SIDE&C 23 AVE-BTWN 91-85 ST,,17.0d 14:45:00,,53.45169814,-113.4632398,SATOO,1,roadway,0.177,17.0d 06:00:00,D,1,B1,1837.0_1,17.0
1854.0_1_B1,80 ST-76 AVE,,18.0d 14:45:00,,53.51080393,-113.4492502,AVONMORE,1,neighbourhood,1.4715,18.0d 06:00:00,D,1,B1,1854.0_1,18.0
1867.0_1_B1,88 ST-69 AVE,,20d 14:45:00,,53.50596204,-113.4637143,ARGYLL,1,neighbourhood,7.051,10d 06:00:00,D,10,B1,1867.0_1,
1868.0_1_B1,70-75 AVE - 85ST TO RAVINE,,20.0d 14:45:00,,53.50873972,-113.4609116,MILL CREEK RAVINE SOUTH,1,neighbourhood,0.8205,20.0d 06:00:00,D,1,B1,1868.0_1,20.0
1870.0_1_B1,ISLAND NE CORNER 75 ST & ARGYLE RD.,,20.0d 14:45:00,,53.50977333,-113.4432727,CORONET ADDITION INDUSTRIAL,1,neighbourhood,0.2385,20.0d 06:00:00,D,1,B1,1870.0_1,20.0
1889.0_1_B1,WS/C 91 ST BTWN 28 & 34 AVE,,17.0d 14:45:00,,53.46193542,-113.4670981,TIPASKAN,1,roadway,1.285,17.0d 06:00:00,D,1,B1,1889.0_1,17.0
1905.0_1_B1,91 ST BTWN 51 AVE & WHITEMUD DRIVE,,16.0d 14:45:00,,53.48513048,-113.4663823,MCINTYRE INDUSTRIAL,1,roadway,0.913,16.0d 06:00:00,D,1,B1,1905.0_1,16.0
1980.0_1_B1,WEST SIDE 34 ST 18-23 AVE & WEST SIDE 34 ST 16A - 18 AVE,,15.0d 14:45:00,,53.44893668,-113.3941282,DALY GROVE,1,roadway,0.46,15.0d 06:00:00,D,1,B1,1980.0_1,15.0
2016.0_1_B1,EAST OF 42 AVE BTWN 102 & 106B AVE,,17.0d 14:45:00,,53.54874589,-113.4057399,GOLD BAR,1,neighbourhood,0.3985,17.0d 06:00:00,D,1,B1,2016.0_1,17.0
2156.0_1_B1,KNOTTWOOD ROAD S-75 ST,,13.0d 14:45:00,,53.44317506,-113.448125,MENISA,1,neighbourhood,0.4115,13.0d 06:00:00,D,1,B1,2156.0_1,13.0
2165.0_1_B1,BTWN 75 & 34 ST INCLUDING 82 AVE - 71 ST,,20.0d 14:45:00,,53.51663277,-113.4035534,MORRIS INDUSTRIAL,1,roadway,0.47,20.0d 06:00:00,D,1,B1,2165.0_1,20.0
2193.0_1_B1,EAST 98 ST - RAVINE & 92 AVE,,20.0d 14:45:00,,53.52148967,-113.4750752,MILL CREEK RAVINE SOUTH,1,neighbourhood,0.425,20.0d 06:00:00,D,1,B1,2193.0_1,20.0
2194.0_1_B1,NORTH 63-66 AVE - 89-92 ST,,17.0d 14:45:00,,53.50096985,-113.4677927,HAZELDEAN,1,neighbourhood,0.7975,17.0d 06:00:00,D,1,B1,2194.0_1,17.0
2217.0_1_B1,95 ST-88 AVE,,17.0d 14:45:00,,53.5254877,-113.4743503,MILL CREEK RAVINE NORTH,1,neighbourhood,1.8035,17.0d 06:00:00,D,1,B1,2217.0_1,17.0
2233.0_1_B1,SOUTH SIDE/C 34 AVE BTWN MILLWOODS RD & 66 ST,,12.0d 14:45:00,,53.46495912,-113.4432916,LEE RIDGE,1,roadway,0.45,12.0d 06:00:00,D,1,B1,2233.0_1,12.0
2250.0_1_B1,54-58 ST & 34 AVE-38 AVE,,18.0d 14:45:00,,53.46914599,-113.4233464,HILLVIEW,1,neighbourhood,0.1685,18.0d 06:00:00,D,1,B1,2250.0_1,18.0
2255.0_1_B1,SOUTH SIDE/C 23 AVE-BTWN 66-50 ST,,16.0d 14:45:00,,53.4537107,-113.4285839,MILL WOODS TOWN CENTRE,1,roadway,0.53,16.0d 06:00:00,D,1,B1,2255.0_1,16.0
2261.0_1_B1,98 AVE-CONNORS ROAD-99 ST,,14.0d 14:45:00,,53.53647744,-113.4816691,MILL CREEK RAVINE NORTH,1,neighbourhood,2.526,14.0d 06:00:00,D,1,B1,2261.0_1,14.0
2270.0_1_B1,W/S 17 St. South of 38 Ave,,20d 14:45:00,,53.47390517,-113.3689558,WILD ROSE,1,roadway,2.785,10d 06:00:00,D,10,B1,2270.0_1,
2386.0_1_B1,WEST SIDE 75 ST-BTWN-98-101 AVE,,19.0d 14:45:00,,53.5388941,-113.4436549,FOREST HEIGHTS,1,neighbourhood,0.27,19.0d 06:00:00,D,1,B1,2386.0_1,19.0
2391.0_1_B1,96A ST - CONNORS ROAD,,18.0d 14:45:00,,53.53403064,-113.479064,CLOVERDALE,1,neighbourhood,2.3375,18.0d 06:00:00,D,1,B1,2391.0_1,18.0
2448.0_1_B1,KNOTTWOOD RD E-19 AVE,,13.0d 14:45:00,,53.44899765,-113.441916,EKOTA,1,neighbourhood,1.369,13.0d 06:00:00,D,1,B1,2448.0_1,13.0
2469.0_1_B1,WS/C 91 ST BTWN 34 & 39 AVE,,16.0d 14:45:00,,53.46979343,-113.467082,STRATHCONA INDUSTRIAL PARK,1,roadway,2.55,16.0d 06:00:00,D,1,B1,2469.0_1,16.0
2492.0_1_B1,NORTH OF 28 AVE-BTWN MILLWOODS RD-37 S,,11.0d 14:45:00,,53.45955007,-113.4022907,BISSET,1,neighbourhood,0.2195,11.0d 06:00:00,D,1,B1,2492.0_1,11.0
2503.0_1_B1,East of School: 77 St & 40 Ave,,11.0d 14:45:00,,53.47648911,-113.4532758,TWEDDLE PLACE,1,neighbourhood,1.0415,11.0d 06:00:00,D,1,B1,2503.0_1,11.0
2577.0_1_B1,NORTH SIDE 28 AVE BTWN 91 ST & LAKEWOO,,16.0d 14:45:00,,53.45897563,-113.4631064,TIPASKAN,1,roadway,0.33,16.0d 06:00:00,D,1,B1,2577.0_1,16.0
2626.0_1_B1,W/S & C 50 ST BTWN 11-13 AVE,,17.0d 14:45:00,,53.44063989,-113.4187295,CRAWFORD PLAINS,1,roadway,0.289,17.0d 06:00:00,D,1,B1,2626.0_1,17.0
2632.0_1_B1,MILLWOODS ROAD-36 AVE,,11.0d 14:45:00,,53.47026464,-113.4558261,RICHFIELD,1,neighbourhood,1.737,11.0d 06:00:00,D,1,B1,2632.0_1,11.0
2640.0_1_B1,WEST OF 24 ST: BETWEEN 38 & 43A AVE,,11.0d 14:45:00,,53.47847993,-113.3811779,LARKSPUR,1,neighbourhood,1.6815,11.0d 06:00:00,D,1,B1,2640.0_1,11.0
2642.0_1_B1,66 AVE - 3 ST,,20d 14:45:00,,53.5028667,-113.3485284,MAPLE RIDGE INDUSTRIAL,1,neighbourhood,1.9,10d 06:00:00,D,10,B1,2642.0_1,
2662.0_1_B1,38 AVE-58 ST,,20.0d 14:45:00,,53.46988154,-113.4269172,HILLVIEW,1,neighbourhood,1.8665,20.0d 06:00:00,D,1,B1,2662.0_1,20.0
2683.0_1_B1,ES 91 ST BTWN 23 - 28 AVE,,14.0d 14:45:00,,53.45531632,-113.4657287,MEYONOHK,1,roadway,1.5,14.0d 06:00:00,D,1,B1,2683.0_1,14.0
2846.0_1_B1,S/S SH PK FREEWAY: OVERPASS - 50 ST(34 St to 50 St),,20.0d 14:45:00,,53.51414833,-113.4213001,DAVIES INDUSTRIAL EAST,1,roadway,0.4705,20.0d 06:00:00,D,1,B1,2846.0_1,20.0
2915.0_1_B1,N.S. 28 AVE BTWN PIPELINE & 66 ST,,12.0d 14:45:00,,53.45856711,-113.4369712,KAMEYOSEK,1,roadway,0.466,12.0d 06:00:00,D,1,B1,2915.0_1,12.0
2921.0_1_B1,WEST OF 37 ST & NORTH OF 28 AVE,,19.0d 14:45:00,,53.45907884,-113.3992562,BISSET,1,neighbourhood,0.1885,19.0d 06:00:00,D,1,B1,2921.0_1,19.0
2955.0_1_B1,ES 91 ST BTWN 28 & 34 AVE,,14.0d 14:45:00,,53.4619236,-113.465737,TIPASKAN,1,roadway,1.75,14.0d 06:00:00,D,1,B1,2955.0_1,14.0
2973.0_1_B1,BTWN 75 & 34 ST INCLUDING 82 AVE - 71 ST,,20d 14:45:00,,53.51591628,-113.4046955,MORRIS INDUSTRIAL,1,roadway,1.4505,10d 06:00:00,D,10,B1,2973.0_1,
2985.0_1_B1,E/S & C 91 ST: -BTWN 58 & 63 AVE,,20d 14:45:00,,53.49343282,-113.4670906,CORONET ADDITION INDUSTRIAL,1,roadway,0.345,10d 06:00:00,D,10,B1,2985.0_1,
3041.0_1_B1,38 ST - 34 ST & Whitemud Dr - Mill Creek Ravine,,20d 14:45:00,,53.48179332,-113.4036836,KINISKI GARDENS,1,neighbourhood,2.19,10d 06:00:00,D,10,B1,3041.0_1,
3182.0_1_B1,93A AVE-58 ST,,20d 14:45:00,,53.52930644,-113.424802,OTTEWELL,1,neighbourhood,3.115,10d 06:00:00,D,10,B1,3182.0_1,
3196.0_1_B1,SOUTH SIDE/C 23AVE BTWN MILLWOODS RD and 66 ST,,20d 14:45:00,,53.45344629,-113.4413081,MILL WOODS PARK,1,roadway,0.465,10d 06:00:00,D,10,B1,3196.0_1,
3276.0_1_B1,EAST SIDE/C 50 ST BTWN 23-34 AVE,,20d 14:45:00,,53.45966866,-113.4205523,TAWA,1,roadway,0.6,10d 06:00:00,D,10,B1,3276.0_1,
3313.0_1_B1,Summerside Dr - 88 St,,20d 14:45:00,,53.42007251,-113.4639724,SUMMERSIDE,1,neighbourhood,3.148,10d 06:00:00,D,10,B1,3313.0_1,
3360.0_1_B1,BTWN 75 & 34 ST INCLUDING 82 AVE - 71 ST,,20d 14:45:00,,53.5157866,-113.4302362,GIRARD INDUSTRIAL,1,roadway,1.2715,10d 06:00:00,D,10,B1,3360.0_1,
3377.0_1_B1,12 AVE-41 ST,,20d 14:45:00,,53.44155176,-113.4052089,CRAWFORD PLAINS,1,neighbourhood,2.285,10d 06:00:00,D,10,B1,3377.0_1,
3399.0_1_B1,EAST SIDE 66 ST BTWN 10 AVE-MILLWOODS R,,20d 14:45:00,,53.44216099,-113.4385006,SAKAW,1,roadway,1.125,10d 06:00:00,D,10,B1,3399.0_1,
3400.0_1_B1,19A AVE-57 ST/Millwoods road -56-62 ST,,20d 14:45:00,,53.44818909,-113.4285355,MEYOKUMIN,1,neighbourhood,2.1375,10d 06:00:00,D,10,B1,3400.0_1,
3416.0_1_B1,E/S & C 66 ST: MILLWOODS RD S - 23 AVE,,20d 14:45:00,,53.44906998,-113.4354028,MEYOKUMIN,1,roadway,0.635,10d 06:00:00,D,10,B1,3416.0_1,
3432.0_1_B1,EAST SIDE/C 50 ST-BTWN 40 AVE-WHITEMUD,,20d 14:45:00,,53.48054226,-113.417776,MILL WOODS GOLF COURSE,1,roadway,0.57,10d 06:00:00,D,10,B1,3432.0_1,
3434.0_1_B1,319 - 83 St SW,,20d 14:45:00,,53.42943466,-113.4581559,ELLERSLIE,1,neighbourhood,2.5925,10d 06:00:00,D,10,B1,3434.0_1,
3492.0_1_B1,N/S 23 AVE: 38 ST - 34 ST,,20d 14:45:00,,53.45401563,-113.3968153,BISSET,1,roadway,0.175,10d 06:00:00,D,10,B1,3492.0_1,
3517.0_1_B1,SOUTH SIDE 34 AVE-BTWN-MILLWOODS RD E-34 St,,20d 14:45:00,,53.46363994,-113.4001809,BISSET,1,roadway,0.43,10d 06:00:00,D,10,B1,3517.0_1,
3559.0_1_B1,38 ST-BTWN 38-41 AVE,,20d 14:45:00,,53.47481221,-113.4007496,KINISKI GARDENS,1,neighbourhood,2.7565,10d 06:00:00,D,10,B1,3559.0_1,
3596.0_1_B1,WS/C 91 ST BTWM 39 AVE & WHITEMUD DRIVE,,20d 14:45:00,,53.47761346,-113.4671558,STRATHCONA INDUSTRIAL PARK,1,roadway,1.34,10d 06:00:00,D,10,B1,3596.0_1,
3611.0_1_B1,98-101 AVE-64-67 ST,,20d 14:45:00,,53.53949827,-113.4305311,TERRACE HEIGHTS,1,neighbourhood,1.6965,10d 06:00:00,D,10,B1,3611.0_1,
3618.0_1_B1,95 AVE-90 ST,,20d 14:45:00,,53.53239598,-113.4645996,STRATHEARN,1,neighbourhood,0.395,10d 06:00:00,D,10,B1,3618.0_1,
3646.0_1_B1,58 ST & YOUVILLE DR EAST TO POLICE STATI,,20d 14:45:00,,53.46235135,-113.4255351,TAWA,1,neighbourhood,3.52,10d 06:00:00,D,10,B1,3646.0_1,
3647.0_1_B1,55 ST-BTWN 28 AVE-25 AVE,,20d 14:45:00,,53.45759036,-113.4246402,MILL WOODS TOWN CENTRE,1,neighbourhood,1.065,10d 06:00:00,D,10,B1,3647.0_1,
3666.0_1_B1,North of Edwards Drive SW & East of 91 St SW,,20d 14:45:00,,53.43105561,-113.4669521,ELLERSLIE,1,neighbourhood,0.2105,10d 06:00:00,D,10,B1,3666.0_1,
3667.0_1_B1,East of 88 St SW & South of 6 Ave SW,,20d 14:45:00,,53.42618572,-113.466953,ELLERSLIE,1,neighbourhood,0.2595,10d 06:00:00,D,10,B1,3667.0_1,
3705.0_1_B1,Ellerslie Road & 91 St SW,,20d 14:45:00,,53.42400853,-113.4711774,SUMMERSIDE,1,neighbourhood,0.3,10d 06:00:00,D,10,B1,3705.0_1,
3706.0_1_B1,S/S Ellerslie Road: Parsons Rd - 91 St,,20d 14:45:00,,53.424915,-113.4765264,ELLERSLIE INDUSTRIAL,1,roadway,0.225,10d 06:00:00,D,10,B1,3706.0_1,
3707.0_1_B1,S/S Ellerslie Road: 91 St - 78 St,,20d 14:45:00,,53.42474573,-113.4597029,SUMMERSIDE,1,roadway,0.5,10d 06:00:00,D,10,B1,3707.0_1,
3846.0_1_B1,BTWN MILLBOURNE RD E-66 ST,,20d 14:45:00,,53.47997797,-113.4441735,MICHAELS PARK,1,neighbourhood,0.1815,10d 06:00:00,D,10,B1,3846.0_1,
3897.0_1_B1,WEST OF 23 ST: 38 AVE - 37A AVE,,20d 14:45:00,,53.4739436,-113.3811523,WILD ROSE,1,neighbourhood,1.0235,10d 06:00:00,D,10,B1,3897.0_1,
3907.0_1_B1,W/S & C 34 St: 38 Ave South to Ravine,,20d 14:45:00,,53.46893081,-113.3939601,KINISKI GARDENS,1,roadway,0.6725,10d 06:00:00,D,10,B1,3907.0_1,
3921.0_1_B1,EAST SIDE/C 66 ST: 38 AVE-WHITEMUD DRIVE,,20d 14:45:00,,53.47947008,-113.4412674,MILL WOODS GOLF COURSE,1,roadway,0.65,10d 06:00:00,D,10,B1,3921.0_1,
3951.0_1_B1,W/S 34 ST: WHITEMUD DR - 38 AVE,,20d 14:45:00,,53.4802683,-113.3939614,KINISKI GARDENS,1,roadway,0.5,10d 06:00:00,D,10,B1,3951.0_1,
3958.0_1_B1,80 ST-S OF 101 AVE,,20d 14:45:00,,53.53927859,-113.4508733,FOREST HEIGHTS,1,neighbourhood,1.0,10d 06:00:00,D,10,B1,3958.0_1,
3959.0_1_B1,E/S & C 50 ST: 92 AVE - 101 AVE,,20d 14:45:00,,53.53249873,-113.4183825,EASTGATE BUSINESS PARK,1,neighbourhood,1.025,10d 06:00:00,D,10,B1,3959.0_1,
3974.0_1_B1,17 ST-66 AVE,,20d 14:45:00,,53.50154929,-113.3675824,SOUTHEAST INDUSTRIAL,1,neighbourhood,4.631,10d 06:00:00,D,10,B1,3974.0_1,
3977.0_1_B1,WEST SIDE 50 ST BTWN 38-40 AVE,,20d 14:45:00,,53.4731319,-113.4160265,GREENVIEW,1,roadway,0.2,10d 06:00:00,D,10,B1,3977.0_1,
3996.0_1_B1,MILLBOURNE RD E-LEE RIDGE RD,,20d 14:45:00,,53.47100097,-113.4468918,LEE RIDGE,1,neighbourhood,2.5,10d 06:00:00,D,10,B1,3996.0_1,
4010.0_1_B1,N/S & C 90 AVE: 75 ST - 85 ST,,20d 14:45:00,,53.52534617,-113.4499205,IDYLWYLDE,1,neighbourhood,0.2785,10d 06:00:00,D,10,B1,4010.0_1,
4011.0_1_B1,67A ST-93A AVE,,20d 14:45:00,,53.53125177,-113.4270686,OTTEWELL,1,neighbourhood,5.5,10d 06:00:00,D,10,B1,4011.0_1,
4013.0_1_B1,67 ST - 6 AVE SW,,20d 14:45:00,,53.42720319,-113.447899,ELLERSLIE,1,neighbourhood,1.5,10d 06:00:00,D,10,B1,4013.0_1,
4034.0_1_B1,EAST SIDE/C 50 ST 38 - 40 AVE,,20d 14:45:00,,53.47302522,-113.4155722,MINCHAU,1,roadway,0.282,10d 06:00:00,D,10,B1,4034.0_1,
4035.0_1_B1,79 AVE-87 ST,,20d 14:45:00,,53.51411138,-113.4595635,GREENVIEW,1,neighbourhood,1.1275,10d 06:00:00,D,10,B1,4035.0_1,
4043.0_1_B1,79 ST-94 AVE,,20d 14:45:00,,53.53148454,-113.4508368,PAPASCHASE INDUSTRIAL,1,neighbourhood,2.6645,10d 06:00:00,D,10,B1,4043.0_1,
4045.0_1_B1,17 Ave-18A Ave & 48 St-Mill Woods Road East,,20d 14:45:00,,53.44749477,-113.4080485,OTTEWELL,1,neighbourhood,5.2235,10d 06:00:00,D,10,B1,4045.0_1,
4048.0_1_B1,1888 - 37 ST,,20d 14:45:00,,53.44873644,-113.4006682,DALY GROVE,1,neighbourhood,2.456,10d 06:00:00,D,10,B1,4048.0_1,
4081.0_1_B1,SOUTH SIDE&C 23 AVE-BTWN 85 ST-MILLWOO,,20d 14:45:00,,53.45243671,-113.4541011,SATOO,1,roadway,0.535,10d 06:00:00,D,10,B1,4081.0_1,
4087.0_1_B1,91 ST BTWN 51 & 54 AVE,,20d 14:45:00,,53.48984947,-113.4670316,CORONET INDUSTRIAL,1,roadway,0.4,10d 06:00:00,D,10,B1,4087.0_1,
4122.0_1_B1,43A AVE: 27 - 30 ST,,20d 14:45:00,,53.47978351,-113.3847698,LARKSPUR,1,neighbourhood,4.77,10d 06:00:00,D,10,B1,4122.0_1,
4123.0_1_B1,91 ST-86 AVE,,20d 14:45:00,,53.5227385,-113.4689726,BONNIE DOON,1,neighbourhood,0.176,10d 06:00:00,D,10,B1,4123.0_1,
4165.0_1_B1,23 ST & 37A AVE,,20d 14:45:00,,53.47135276,-113.3787691,WILD ROSE,1,neighbourhood,2.3575,10d 06:00:00,D,10,B1,4165.0_1,
4177.0_1_B1,Millbourned Road West & 40 Ave,,20d 14:45:00,,53.47576909,-113.4545088,TWEDDLE PLACE,1,neighbourhood,1.0415,10d 06:00:00,D,10,B1,4177.0_1,
4186.0_1_B1,JAMHA ROAD & JACKSON ROAD,,20d 14:45:00,,53.48343111,-113.4072579,JACKSON HEIGHTS,1,neighbourhood,1.273,10d 06:00:00,D,10,B1,4186.0_1,
4198.0_1_B1,79 ST-98 AVE,,20d 14:45:00,,53.53804707,-113.4470586,FOREST HEIGHTS,1,neighbourhood,1.035,10d 06:00:00,D,10,B1,4198.0_1,
4204.0_1_B1,SOUTH SIDE/C 34 AVE-BTWN-66-50 ST,,20d 14:45:00,,53.46524425,-113.4282146,TAWA,1,roadway,0.5,10d 06:00:00,D,10,B1,4204.0_1,
4259.0_1_B1,44 ST-39 AVE,,20d 14:45:00,,53.47452958,-113.4056587,KINISKI GARDENS,1,neighbourhood,0.2085,10d 06:00:00,D,10,B1,4259.0_1,
4260.0_1_B1,W/S MILL WOODS RD EAST: 23 AVE - 34 AVE,,20d 14:45:00,,53.4598939,-113.4075201,WEINLOS,1,roadway,0.621,10d 06:00:00,D,10,B1,4260.0_1,
4261.0_1_B1,54 ST & 107A AVE,,20d 14:45:00,,53.55571284,-113.4235434,CAPILANO,1,neighbourhood,2.5,10d 06:00:00,D,10,B1,4261.0_1,
4262.0_1_B1,WEST SIDE 50 ST-82-90 AVE,,20d 14:45:00,,53.52051234,-113.4190959,OTTEWELL,1,neighbourhood,0.332,10d 06:00:00,D,10,B1,4262.0_1,
4267.0_1_B1,37 ST-33 AVE,,20d 14:45:00,,53.46154834,-113.4005705,BISSET,1,neighbourhood,3.746,10d 06:00:00,D,10,B1,4267.0_1,
4294.0_1_B1,48 ST & 28 AVE,,20d 14:45:00,,53.46097016,-113.4141569,WEINLOS,1,neighbourhood,3.0135,10d 06:00:00,D,10,B1,4294.0_1,
4308.0_1_B1,86 AVE-68A ST,,20d 14:45:00,,53.51979663,-113.4305139,KENILWORTH,1,neighbourhood,1.31,10d 06:00:00,D,10,B1,4308.0_1,
4328.0_1_B1,79 ST-LAKEWOOD RD S,,20d 14:45:00,,53.45529188,-113.4558291,MEYONOHK,1,neighbourhood,2.096,10d 06:00:00,D,10,B1,4328.0_1,
4331.0_1_B1,EAST OF 75 ST SW & NORTH OF 7 AVE SW,,20d 14:45:00,,53.42781177,-113.44932,ELLERSLIE,1,neighbourhood,0.2455,10d 06:00:00,D,10,B1,4331.0_1,
4341.0_1_B1,41 AVE-41 ST,,20d 14:45:00,,53.47838217,-113.4062629,KINISKI GARDENS,1,neighbourhood,3.3015,10d 06:00:00,D,10,B1,4341.0_1,
4344.0_1_B1,W/S & C 34 St: 34 Ave - 23 Ave,,20d 14:45:00,,53.45868909,-113.3941215,BISSET,1,roadway,1.44,10d 06:00:00,D,10,B1,4344.0_1,
4365.0_1_B1,SOUTH SIDE/C 34 AVE-91 ST-MILLWOODS RD,,20d 14:45:00,,53.46504899,-113.4592898,RICHFIELD,1,roadway,0.4335,10d 06:00:00,D,10,B1,4365.0_1,
4398.0_1_B1,17 St - 68 Ave,,20d 14:45:00,,53.50519941,-113.3651641,SOUTHEAST INDUSTRIAL,1,neighbourhood,1.9165,10d 06:00:00,D,10,B1,4398.0_1,
4415.0_1_B1,East of 30 St: 33 Ave - 23 Ave,,20d 14:45:00,,53.45963731,-113.3817214,SILVER BERRY,1,neighbourhood,2.2915,10d 06:00:00,D,10,B1,4415.0_1,
4423.0_1_B1,MW RD S-75 ST/ES OF SCHOOL,,20d 14:45:00,,53.44656424,-113.4479371,EKOTA,1,neighbourhood,0.406,10d 06:00:00,D,10,B1,4423.0_1,
4427.0_1_B1,LAKEWOOD RD E - 31 AVE,,20d 14:45:00,,53.46125892,-113.4432301,KAMEYOSEK,1,neighbourhood,2.4305,10d 06:00:00,D,10,B1,4427.0_1,
4443.0_1_B1,28 Ave: Parsons Road (99 St) - 91 St,,20d 14:45:00,,53.45879988,-113.475642,PARSONS INDUSTRIAL,1,roadway,0.735,10d 06:00:00,D,10,B1,4443.0_1,
4452.0_1_B1,E/S & C 50 ST: 82 - 90 AVE,,20d 14:45:00,,53.51956079,-113.4183455,LAMBTON INDUSTRIAL,1,neighbourhood,0.19,10d 06:00:00,D,10,B1,4452.0_1,
4471.0_1_B1,Tamarack Green - 12 St,,20d 14:45:00,,53.46908585,-113.3606443,TAMARACK,1,neighbourhood,3.435,10d 06:00:00,D,10,B1,4471.0_1,
4482.0_1_B1,E/S & C 50 St: Mill Woods Road South - 23 Ave,,20d 14:45:00,,53.44998974,-113.4193237,POLLARD MEADOWS,1,roadway,0.95,10d 06:00:00,D,10,B1,4482.0_1,
4483.0_1_B1,EAST SIDE/C 50 ST BTWN 34 & 38 AVE,,20d 14:45:00,,53.46759607,-113.4181133,MINCHAU,1,roadway,0.357,10d 06:00:00,D,10,B1,4483.0_1,
4485.0_1_B1,E/S & C 66 ST: 34 AVE - 38 AVE,,20d 14:45:00,,53.46980168,-113.4376774,LEE RIDGE,1,roadway,0.5,10d 06:00:00,D,10,B1,4485.0_1,
4529.0_1_B1,Ellerslie Rd:101 St-91 St & Parsons Rd:N of Ellersli,,20d 14:45:00,,53.42624096,-113.4829633,ELLERSLIE INDUSTRIAL,1,roadway,0.8,10d 06:00:00,D,10,B1,4529.0_1,
4531.0_1_B1,66 St SW & 2 Ave SW,,20d 14:45:00,,53.429125,-113.4404401,CHARLESWORTH,1,neighbourhood,0.55,10d 06:00:00,D,10,B1,4531.0_1,
4532.0_1_B1,3225 - 35 A Ave,,20d 14:45:00,,53.46712332,-113.3923492,WILD ROSE,1,neighbourhood,0.412,10d 06:00:00,D,10,B1,4532.0_1,
4533.0_1_B1,East Side & Center 17 St: Whitemud Drive - 34 Av,,20d 14:45:00,,53.4764141,-113.3685041,TAMARACK,1,roadway,1.01,10d 06:00:00,D,10,B1,4533.0_1,
4538.0_1_B1,38 AVE-58 ST,,20d 14:45:00,,53.47530033,-113.427371,GREENVIEW,1,neighbourhood,4.269,10d 06:00:00,D,10,B1,4538.0_1,
4539.0_1_B1,3335 - 25 Street,,20d 14:45:00,,53.465245,-113.3785316,SILVER BERRY,1,neighbourhood,1.1795,10d 06:00:00,D,10,B1,4539.0_1,
4543.0_1_B1,ELLERSLIE ROAD-66 ST,,20d 14:45:00,,53.42636695,-113.4405375,CHARLESWORTH,1,neighbourhood,2.8,10d 06:00:00,D,10,B1,4543.0_1,
4550.0_1_B1,BTWN 75 & 34 ST INCLUDING 82 AVE - 71 ST,,20d 14:45:00,,53.51408458,-113.4324145,GAINER INDUSTRIAL,1,roadway,0.2385,10d 06:00:00,D,10,B1,4550.0_1,
4554.0_1_B1,66 St Ellerslie to 2 AVE,,20d 14:45:00,,53.42793174,-113.4427959,ELLERSLIE,1,roadway,0.375,10d 06:00:00,D,10,B1,4554.0_1,
4556.0_1_B1,FULTON ROAD-103-104 AVE,,20d 14:45:00,,53.54598543,-113.4250088,FULTON PLACE,1,neighbourhood,1.3815,10d 06:00:00,D,10,B1,4556.0_1,
4572.0_1_B1,KNOTTWOOD ROAD W-17 AVE,,20d 14:45:00,,53.44613593,-113.4576249,SATOO,1,neighbourhood,1.5575,10d 06:00:00,D,10,B1,4572.0_1,
4576.0_1_B1,94 AVE-OTTEWELL ROAD,,20d 14:45:00,,53.53142729,-113.4372789,OTTEWELL,1,neighbourhood,1.7105,10d 06:00:00,D,10,B1,4576.0_1,
4581.0_1_B1,Savaryn Drive & Summerside Link,,20d 14:45:00,,53.41291999,-113.4775009,SUMMERSIDE,1,neighbourhood,1.367,10d 06:00:00,D,10,B1,4581.0_1,
4586.0_1_B1,67-70 ST-101-103 AVE,,20d 14:45:00,,53.54272791,-113.432695,TERRACE HEIGHTS,1,neighbourhood,0.589,10d 06:00:00,D,10,B1,4586.0_1,
4604.0_1_B1,46 St & 106 Ave,,20d 14:45:00,,53.54981941,-113.4141054,GOLD BAR,1,neighbourhood,1.48,10d 06:00:00,D,10,B1,4604.0_1,
4609.0_1_B1,89 ST-95 AVE,,20d 14:45:00,,53.5307297,-113.4620961,STRATHEARN,1,neighbourhood,1.44,10d 06:00:00,D,10,B1,4609.0_1,
4616.0_1_B1,83 ST-100 AVE,,20d 14:45:00,,53.53934181,-113.4556598,FOREST HEIGHTS,1,neighbourhood,0.475,10d 06:00:00,D,10,B1,4616.0_1,
4623.0_1_B1,104 AVE-62 ST,,20d 14:45:00,,53.54797208,-113.4299653,FULTON PLACE,1,neighbourhood,1.3025,10d 06:00:00,D,10,B1,4623.0_1,
4625.0_1_B1,NE OF 79 ST-101 AVE,,20d 14:45:00,,53.54312581,-113.44647,RIVER VALLEY GOLD BAR,1,neighbourhood,1.08,10d 06:00:00,D,10,B1,4625.0_1,
4626.0_1_B1,76 ST-105 AVE,,20d 14:45:00,,53.54712329,-113.4437936,FOREST HEIGHTS,1,neighbourhood,0.355,10d 06:00:00,D,10,B1,4626.0_1,
4643.0_1_B1,Wayne Gretzky Drive: 101 Ave - River,,20d 14:45:00,,53.54981994,-113.4396051,FOREST HEIGHTS,1,neighbourhood,1.9285,10d 06:00:00,D,10,B1,4643.0_1,
4650.0_1_B1,N/S 23 AVE: 50ST - MILLWOODS RD E,,20d 14:45:00,,53.45546733,-113.4144299,WEINLOS,1,roadway,0.755,10d 06:00:00,D,10,B1,4650.0_1,
4651.0_1_B1,7304 ROWLAND ROAD,,20d 14:45:00,,53.55304255,-113.4392846,FOREST HEIGHTS,1,neighbourhood,0.175,10d 06:00:00,D,10,B1,4651.0_1,
4652.0_1_B1,S/S 82 AVE: 73-71 ST & 71 ST: 82-79 AVE,,20d 14:45:00,,53.51742877,-113.4378236,KING EDWARD PARK,1,roadway,0.17,10d 06:00:00,D,10,B1,4652.0_1,
4655.0_1_B1,98 AVE - 93 ST,,20d 14:45:00,,53.53852272,-113.4712717,CLOVERDALE,1,neighbourhood,0.319,10d 06:00:00,D,10,B1,4655.0_1,
994667.0_1_B1,9411 - 97 Avenue,,20d 14:45:00,,53.53440614,-113.4725643,CLOVERDALE,1,neighbourhood,3.039,10d 06:00:00,D,10,B1,994667.0_1,
4674.0_1_B1,503 - 59 St SW (5805 - 3 AVE),,20d 14:45:00,,53.42917856,-113.4315572,CHARLESWORTH,1,neighbourhood,1.7,10d 06:00:00,D,10,B1,4674.0_1,
4682.0_1_B1,South of 32 Ave & East of Silver Berry Road,,20d 14:45:00,,53.46152714,-113.3758157,SILVER BERRY,1,neighbourhood,0.494,10d 06:00:00,D,10,B1,4682.0_1,
4683.0_1_B1,31 Ave East of 30 St,,20d 14:45:00,,53.46152891,-113.3794979,SILVER BERRY,1,neighbourhood,0.6175,10d 06:00:00,D,10,B1,4683.0_1,
4684.0_1_B1,96A AVE-OTTEWELL ROAD,,20d 14:45:00,,53.53412676,-113.4393086,OTTEWELL,1,neighbourhood,0.93,10d 06:00:00,D,10,B1,4684.0_1,
4685.0_1_B1,Sunset Blvd (70 St) - Ellerslie Rd,,20d 14:45:00,,53.42394909,-113.4492492,SUMMERSIDE,1,neighbourhood,0.75,10d 06:00:00,D,10,B1,4685.0_1,
4689.0_1_B1,91 ST E/W Parsons Rd - 25 Avenue,,20d 14:45:00,,53.41468495,-113.4813885,ELLERSLIE INDUSTRIAL,1,roadway,0.5,10d 06:00:00,D,10,B1,4689.0_1,
4708.0_1_B1,66 St SW & Ellerslie Road,,20d 14:45:00,,53.42376245,-113.4408112,WALKER,1,neighbourhood,0.6,10d 06:00:00,D,10,B1,4708.0_1,
4709.0_1_B1,55 St SW & 3 Ave SW (5607 3 AVE),,20d 14:45:00,,53.42802726,-113.4296006,CHARLESWORTH,1,neighbourhood,0.2,10d 06:00:00,D,10,B1,4709.0_1,
4725.0_1_B1,70 St SW & 16 Ave SW - 21 Ave SW,,20d 14:45:00,,53.41780384,-113.451045,SUMMERSIDE,1,neighbourhood,2.802,10d 06:00:00,D,10,B1,4725.0_1,
5321.0_1_B1,Orchards Gate SW & Orchards Dr SW,,20d 14:45:00,,53.40736169,-113.4741846,Summerside,1,neighbourhood,0.47,10d 06:00:00,D,10,B1,5321.0_1,
5323.0_1_B1,25 Ave SW & Orchards Gate,,20d 14:45:00,,53.40983397,-113.4709706,SUMMERSIDE,1,neighbourhood,0.5155,10d 06:00:00,D,10,B1,5323.0_1,
5565.0_1_B1,34 ave 21 st NW,,20d 14:45:00,,53.46643817,-113.3751525,WILD ROSE,1,neighbourhood,0.4465,10d 06:00:00,D,10,B1,5565.0_1,
5845.0_1_B1,66 St: 21 Ave SW to Ellerslie Rd,,20d 14:45:00,,53.417599851,-113.442478953,WALKER,1,roadway,0.6995,10d 06:00:00,D,10,B1,5845.0_1,
6250.0_1_B1,90 St & 23 Ave SW,,20d 14:45:00,,53.41169516,-113.4724155,SUMMERSIDE,1,neighbourhood,0.514,10d 06:00:00,D,10,B1,6250.0_1,
6286.0_1_B1,"East of 28 St, near 20 Ave NW",,20d 14:45:00,,53.450518786,-113.381810411,LAUREL,1,neighbourhood,2.189,10d 06:00:00,D,10,B1,6286.0_1,
6306.0_1_B1,Roper Rd & 36 St,,20d 14:45:00,,53.49648373,-113.3974274,PYLYPOW INDUSTRIAL,1,neighbourhood,2.5,10d 06:00:00,D,10,B1,6306.0_1,
6827.0_1_B1,Savaryn Drive and 22 Avenue SW,,20d 14:45:00,,53.41464618,-113.4624041,SUMMERSIDE,1,neighbourhood,3.435,10d 06:00:00,D,10,B1,6827.0_1,
6848.0_1_B1,70 Street SW and 18 Avenue SW,,20d 14:45:00,,53.41783449,-113.4492125,SUMMERSIDE,1,neighbourhood,2.5935,10d 06:00:00,D,10,B1,6848.0_1,
7430.0_1_B1,32 St & 16A Ave NW,,20d 14:45:00,,53.44484975,-113.390003,LAUREL,1,neighbourhood,1.268,10d 06:00:00,D,10,B1,7430.0_1,
8287.0_1_B1,32 Street - 17A Avenue,,20d 14:45:00,,53.44606634,-113.385804236,Laurel,1,neighbourhood,1.4495,10d 06:00:00,D,10,B1,8287.0_1,
8382.0_1_B1,Tamarack Blvd - 28 Avenue,,20d 14:45:00,,53.459029552,-113.363658425,TAMARACK,1,neighbourhood,0.6795,10d 06:00:00,D,10,B1,8382.0_1,
8442.0_1_B1,32 St & 14 Ave,,20d 14:45:00,,53.40568068,-113.4728549,Laurel,1,neighbourhood,0.248,10d 06:00:00,D,10,B1,8442.0_1,
8443.0_1_B1,East of Crabapple Run SW from 4709 Crabapple Run SW to 4631 Crabapple Run SW,,20d 14:45:00,,53.40568068,-113.4728549,Summerside,1,neighbourhood,0.1695,10d 06:00:00,D,10,B1,8443.0_1,
9146.0_1_B1,51 Avenue East of 34 Street,,20d 14:45:00,,53.4894329,-113.3920124,SOUTHEAST INDUSTRIAL,1,neighbourhood,0.4845,10d 06:00:00,D,10,B1,9146.0_1,
9354.0_1_B1,98 AVE-CONNORS ROAD-99 ST,,20d 14:45:00,,53.53407858,-113.483941,Cloverdale,1,neighbourhood,1.1015,10d 06:00:00,D,10,B1,9354.0_1,
2409.0_1_B1,98 ST/70-72 AVE + P.U.L. S/W 99ST&73AVE,,20d 14:45:00,,53.50761008,-113.4843723,HAZELDEAN,1,neighbourhood,0.795,10d 06:00:00,D,10,B1,2409.0_1,
2687_1_B1,#300 BULYEA ROAD,,19.0d 14:45:00,,53.47339753,-113.574114,Bulyea Heights,1,neighbourhood,4.8375,19.0d 06:00:00,D,1,B1,2687_1,19.0
75_1_B1,09 AVE-111-113 ST,,20d 14:45:00,,53.43955434,-113.5223116,Twin Brooks,1,neighbourhood,0.2645,10d 06:00:00,D,10,B1,75_1,
152_1_B1,Ellerslie Rd (9 Ave. SW) N. & S. side - (119 St.) to SCHOOL,,20.0d 14:45:00,,53.42490752,-113.5327273,MacEwan,1,neighbourhood,0.9,20.0d 06:00:00,D,1,B1,152_1,20.0
194_1_B1,FALCONER Road- # 1401 FALCONER ROAD,,14.0d 14:45:00,,53.46839614,-113.5912643,Falconer Heights,1,neighbourhood,0.198,14.0d 06:00:00,D,1,B1,194_1,14.0
208_1_B1,#1003 Leger Boulevard & Rabbit Hill Road,,19.0d 14:45:00,,53.4595878,-113.5675726,Leger,1,neighbourhood,0.3355,19.0d 06:00:00,D,1,B1,208_1,19.0
356_1_B1,29A AVE-104 ST,,11.0d 14:45:00,,53.46059016,-113.4965017,Ermineskin,1,neighbourhood,0.3265,11.0d 06:00:00,D,1,B1,356_1,11.0
487_1_B1,1808 Haswell Way,,13.0d 14:45:00,,53.45113302,-113.5995119,Haddow,1,neighbourhood,0.331,13.0d 06:00:00,D,1,B1,487_1,13.0
536_1_B1,9 Ave. - 110 St to 107 St.,,19.0d 14:45:00,,53.42521698,-113.5090275,Richford,1,neighbourhood,0.25,19.0d 06:00:00,D,1,B1,536_1,19.0
559_1_B1,43 AVE-147A ST,,11.0d 14:45:00,,53.47916891,-113.5760812,Ramsey Heights,1,neighbourhood,0.1955,11.0d 06:00:00,D,1,B1,559_1,11.0
649_1_B1,111 ST: WHITEMUD DRIVE to 51 AVE,,19.0d 14:45:00,,53.48532079,-113.5176727,Empire Park,1,neighbourhood,0.5705,19.0d 06:00:00,D,1,B1,649_1,19.0
665_1_B1,E/S GATEWAY BLVD: 19 AVE - 15 AVE,,12.0d 14:45:00,,53.444490589,-113.492194656,South Edmonton Common,1,roadway,0.305,12.0d 06:00:00,D,1,B1,665_1,12.0
691_1_B1,89 AVE-118 ST,,14.0d 14:45:00,,53.52514221,-113.5359495,Windsor Park,1,neighbourhood,0.4335,14.0d 06:00:00,D,1,B1,691_1,14.0
761_1_B1,Rabbit Hill Road - #7005 South Terwilleger Drive,,13.0d 14:45:00,,53.43804279,-113.5716399,Terwilleger South,1,neighbourhood,0.468,13.0d 06:00:00,D,1,B1,761_1,13.0
814_1_B1,43 AVE:111 - 122 ST,,17.0d 14:45:00,,53.47994354,-113.5290232,Royal Gardens,1,neighbourhood,1.1675,17.0d 06:00:00,D,1,B1,814_1,17.0
909_1_B1,203 Carmichael CL-#1160 to #1074 Carter Crest Rd.,,14.0d 14:45:00,,53.46483969,-113.5767544,Carter Crest,1,neighbourhood,0.272,14.0d 06:00:00,D,1,B1,909_1,14.0
950_1_B1,OGILVIE BLVD-OMAND DRIVE,,14.0d 14:45:00,,53.46343815,-113.5630866,Ogilvie Ridge,1,neighbourhood,0.6925,14.0d 06:00:00,D,1,B1,950_1,14.0
982_1_B1,Rabbit Hill road to behind #229 Ockenden Placee,,14.0d 14:45:00,,53.46164111,-113.566618,Ogilvie Ridge,1,neighbourhood,0.4305,14.0d 06:00:00,D,1,B1,982_1,14.0
1003_1_B1,1503 HASWELL CLOSE,,17.0d 14:45:00,,53.45033688,-113.5981467,Haddow,1,neighbourhood,0.294,17.0d 06:00:00,D,1,B1,1003_1,17.0
1016_1_B1,South side - CPR TRACKS - 111 ST,,16.0d 14:45:00,,53.481138124,-113.507437249,Rideau Park,1,roadway,1.1595,16.0d 06:00:00,D,1,B1,1016_1,16.0
1042_1_B1,from #484 MacEwan Road to #2733 Miles Place,,20.0d 14:45:00,,53.42625235,-113.5373578,MacEwan,1,neighbourhood,0.615,20.0d 06:00:00,D,1,B1,1042_1,20.0
1095_1_B1,South side - CPR TRACKS - Gateway Blvd South,,16.0d 14:45:00,,53.480068929,-113.494374941,Calgary Trail North,1,roadway,0.1735,16.0d 06:00:00,D,1,B1,1095_1,16.0
1149_1_B1,Calgry Trail South - 34 Ave. to 42 Ave.,,12.0d 14:45:00,,53.4715742,-113.4956654,Duggan,1,neighbourhood,1.591,12.0d 06:00:00,D,1,B1,1149_1,12.0
1150_1_B1,41A AVE - 123 ST,,20d 14:45:00,,53.48048827,-113.5481724,Aspen Gardens,1,neighbourhood,0.7975,10d 06:00:00,D,10,B1,1150_1,
1183_1_B1,WESTBROOK DRIVE-124 ST,,13.0d 14:45:00,,53.462898,-113.5440734,Westbrook Estate,1,neighbourhood,0.38,13.0d 06:00:00,D,1,B1,1183_1,13.0
1494_1_B1,28-29 AVE-125-126 ST,,10.0d 14:45:00,,53.45891079,-113.5467675,Blue Quill Estates,1,neighbourhood,0.688,10.0d 06:00:00,D,1,B1,1494_1,10.0
1547_1_B1,3803-105 ST,,12.0d 14:45:00,,53.47341421,-113.5000821,Duggan,1,neighbourhood,0.95,12.0d 06:00:00,D,1,B1,1547_1,12.0
1555_1_B1,1084 Tory Road - #217 Tory Crescent to Rabbit Hill Rd..,,19.0d 14:45:00,,53.45237812,-113.5670903,Terwilleger TOWNE,1,neighbourhood,0.696,19.0d 06:00:00,D,1,B1,1555_1,19.0
1575_1_B1,BURTON ROAD-BUTTERWORTH CLOSE,,14.0d 14:45:00,,53.47870978,-113.5631236,Bulyea Heights,1,neighbourhood,1.08,14.0d 06:00:00,D,1,B1,1575_1,14.0
1663_1_B1,SADDLEBACK RD. 111 - 119 ST,,19.0d 14:45:00,,53.46118388,-113.5182582,Sweet Grass,1,neighbourhood,3.25215,19.0d 06:00:00,D,1,B1,1663_1,19.0
1691_1_B1,56 AVE-141-145 ST,,11.0d 14:45:00,,53.49349408,-113.5673686,Brookside,1,neighbourhood,0.395,11.0d 06:00:00,D,1,B1,1691_1,11.0
1711_1_B1,Windermere Dr. Windermere Blv. - 67 Windermere Dr walkway & from 67 Windemere Drive to 403 - 181 St,,18.0d 14:45:00,,53.43508963,-113.6325826,Windermere South,1,neighbourhood,0.3765,18.0d 06:00:00,D,1,B1,1711_1,18.0
1757_1_B1,403 REEVES CRESENT-RIVERBEND ROAD,,14.0d 14:45:00,,53.47366247,-113.5892026,Rhatigan Ridge,1,neighbourhood,0.479,14.0d 06:00:00,D,1,B1,1757_1,14.0
1788_1_B1,144 ST-53-60 AVE,,11.0d 14:45:00,,53.49467404,-113.5709562,Brookside,1,neighbourhood,0.743,11.0d 06:00:00,D,1,B1,1788_1,11.0
1805_1_B1,Terwilleger Drive: Rabbit Hill Road to 40 Ave.,,15.0d 14:45:00,,53.47225564,-113.5782594,Bulyea Heights,1,roadway,1.0765,15.0d 06:00:00,D,1,B1,1805_1,15.0
1816_1_B1,147 ST-45-51 AVE,,11.0d 14:45:00,,53.48626437,-113.5731096,Ramsey Heights,1,neighbourhood,0.2815,11.0d 06:00:00,D,1,B1,1816_1,11.0
1831_1_B1,125 ST-62 AVE,,19.0d 14:45:00,,53.50102494,-113.5538245,Grandview Heights,1,neighbourhood,0.438,19.0d 06:00:00,D,1,B1,1831_1,19.0
1858_1_B1,58 AVE-WHITEMUD DRIVE-BRANDER DRIVE,,10.0d 14:45:00,,53.49595387,-113.5786278,Brander Gardens,1,neighbourhood,0.3075,10.0d 06:00:00,D,1,B1,1858_1,10.0
1871_1_B1,BULYEA ROAD-#900 BURLEY DRIVE,,14.0d 14:45:00,,53.47207201,-113.5684263,Bulyea Heights,1,neighbourhood,0.267,14.0d 06:00:00,D,1,B1,1871_1,14.0
1904_1_B1,West side 111 ST: 40 AVE - WHITEMUD DRIVE,,15.0d 14:45:00,,53.476950065,-113.516986961,Royal Gardens,1,roadway,0.1965,15.0d 06:00:00,D,1,B1,1904_1,15.0
1909_1_B1,Rabbit Hill rd. - MacTaggart Drive/Rabbit Hill Rd: 23 AVE - TERWILLEGAR BLVD,,20.0d 14:45:00,,53.4473819,-113.5655477,MacTaggert/McGrath,1,neighbourhood,0.412,20.0d 06:00:00,D,1,B1,1909_1,20.0
1917_1_B1,HEATH ROAD & RIVERBEND ROAD,,14.0d 14:45:00,,53.46096072,-113.5969005,Haddow,1,neighbourhood,0.5945,14.0d 06:00:00,D,1,B1,1917_1,14.0
1919_1_B1,122 st - Cambell Bridge,,19.0d 14:45:00,,53.50413648,-113.5460037,River Valley Whitemud,1,neighbourhood,0.95,19.0d 06:00:00,D,1,B1,1919_1,19.0
1951_1_B1,(#1510)119 St & Twin Brooks Close,,10.0d 14:45:00,,53.44964893,-113.5379768,Twin Brooks,1,neighbourhood,1.1955,10.0d 06:00:00,D,1,B1,1951_1,10.0
1956_1_B1,29 Avenue - 119 St. to 126 Street,,14.0d 14:45:00,,53.46157156,-113.5422988,Blue Quill Estates,1,neighbourhood,0.8,14.0d 06:00:00,D,1,B1,1956_1,14.0
1990_1_B1,119 ST-WESTBROOK DRIVE-23AVE,,12.0d 14:45:00,,53.46759644,-113.5038615,Blue Quill,1,roadway,0.6205,12.0d 06:00:00,D,1,B1,1990_1,12.0
1995_1_B1,358 HEATH ROAD - DRY POND,,14.0d 14:45:00,,53.4573543,-113.5977432,Haddow,1,neighbourhood,0.3765,14.0d 06:00:00,D,1,B1,1995_1,14.0
1997_1_B1,N/Center/S side 34 Ave.: 111St to Calgary Trail,,16.0d 14:45:00,,53.46689691,-113.5068298,Steinhauer/Duggan,1,roadway,0.61535,16.0d 06:00:00,D,1,B1,1997_1,16.0
2009_1_B1,15515-58 AVE,,17.0d 14:45:00,,53.49623875,-113.5877917,Brander Gardens,1,neighbourhood,0.1915,17.0d 06:00:00,D,1,B1,2009_1,17.0
2032_1_B1,Ellerslie Road East of 111 St,,20.0d 14:45:00,,53.42439209,-113.5110578,Blackmud Creek,1,neighbourhood,0.4615,20.0d 06:00:00,D,1,B1,2032_1,20.0
2074_1_B1,14141 - Fox Drive,,13.0d 14:45:00,,53.50080356,-113.5631143,River Valley Whitemud,1,neighbourhood,1.644,13.0d 06:00:00,D,1,B1,2074_1,13.0
2087_1_B1,Calgary Trail W/S: 31 Ave - 34 Ave,,16.0d 14:45:00,,53.465813671,-113.496226484,CALGARY TRAIL SOUTH,1,roadway,1.2755,16.0d 06:00:00,D,1,B1,2087_1,16.0
2106_1_B1,Gateway Boulevard to 102 St - 19 Ave.to 12 Ave,,20.0d 14:45:00,,53.46126963,-113.4918437,South Edmonton Common,1,roadway,0.375,20.0d 06:00:00,D,1,B1,2106_1,20.0
2163_1_B1,9 Ave. - 110 St to 107 St.,,19.0d 14:45:00,,53.4249641,-113.5076322,Richford,1,neighbourhood,0.25,19.0d 06:00:00,D,1,B1,2163_1,19.0
2170_1_B1,Rutherford Rd & 16ave SW,,17.0d 14:45:00,,53.41853583,-113.5296777,Rutherford,1,neighbourhood,0.348,17.0d 06:00:00,D,1,B1,2170_1,17.0
2183_1_B1,51 AVE ALLERD WAY - 110 ST,,19.0d 14:45:00,,53.48935209,-113.4990454,Pleasantview,1,neighbourhood,0.5045,19.0d 06:00:00,D,1,B1,2183_1,19.0
2184_1_B1,23 AVE-111-119 ST,,16.0d 14:45:00,,53.4541648,-113.5252887,Blue Quill,1,roadway,1.5,16.0d 06:00:00,D,1,B1,2184_1,16.0
2247_1_B1,9B AVE/116-119 ST,,17.0d 14:45:00,,53.43956223,-113.5365761,Twin Brooks,1,neighbourhood,0.1725,17.0d 06:00:00,D,1,B1,2247_1,17.0
2251_1_B1,"RIVERBEND ROAD-WEST TO RAVINE, West end of pipeline to Anthony Henday Bridge",,14.0d 14:45:00,,53.46169964,-113.6004013,Henderson,1,neighbourhood,1.3775,14.0d 06:00:00,D,1,B1,2251_1,14.0
2256_1_B1,Terwilleger Drive - BULYEA RD - 558 BUCHANAN RD,,15.0d 14:45:00,,53.4675247,-113.5769858,Bulyea Heights,1,roadway,0.279,15.0d 06:00:00,D,1,B1,2256_1,15.0
2324_1_B1,OGILVIE BOULEVARD-OSLAND DRIVE,,10.0d 14:45:00,,53.46295301,-113.5607303,Ogilvie Ridge,1,neighbourhood,1.175,10.0d 06:00:00,D,1,B1,2324_1,10.0
2346_1_B1,10935 - 6 AVE SW & 8 Ave. - 108 St. SW,,19.0d 14:45:00,,53.42646119,-113.5086368,Richford,1,neighbourhood,0.344,19.0d 06:00:00,D,1,B1,2346_1,19.0
2361_1_B1,Whitemud Drive - Fox Drive,,20.0d 14:45:00,,53.50331082,-113.5661867,River Valley Whitemud,1,neighbourhood,2.4452,20.0d 06:00:00,D,1,B1,2361_1,20.0
2370_1_B1,119 St: Twin Brooks Way - 9B Ave,,17.0d 14:45:00,,53.44282737,-113.5407779,Twin Brooks,1,neighbourhood,1.0,17.0d 06:00:00,D,1,B1,2370_1,17.0
2408_1_B1,"111 ST-23 Ave. to Saddleback Road (29A Ave.), Saddlebak Rd.",,15.0d 14:45:00,,53.45719948,-113.5169395,Blue Quill/Ermineskin,1,roadway,1.0775,15.0d 06:00:00,D,1,B1,2408_1,15.0
2414_1_B1,HENDERSON ST-E OF HEPBURN AVE,,17.0d 14:45:00,,53.4681872,-113.59682,Henderson,1,neighbourhood,2.0605,17.0d 06:00:00,D,1,B1,2414_1,17.0
2502_1_B1,39A AVE - ASPEN DRIVE WEST,,13.0d 14:45:00,,53.47479387,-113.5516172,Aspen Gardens,1,neighbourhood,0.22,13.0d 06:00:00,D,1,B1,2502_1,13.0
2531_1_B1,1650 Melrose Place,,20.0d 14:45:00,,53.4319483,-113.5318355,MacEwan,1,neighbourhood,0.4,20.0d 06:00:00,D,1,B1,2531_1,20.0
2537_1_B1,47 AVE-52B AVE,,13.0d 14:45:00,,53.48655979,-113.5521502,Lansdowne,1,neighbourhood,0.639,13.0d 06:00:00,D,1,B1,2537_1,13.0
2559_1_B1,111 ST: 40 AVE to WHITEMUD DRIVE,,16.0d 14:45:00,,53.47994832,-113.5154949,Rideau Park,1,roadway,1.5335,16.0d 06:00:00,D,1,B1,2559_1,16.0
2567_1_B1,45 Ave. to 40 Ave. East of 147 St.,,15.0d 14:45:00,,53.48066572,-113.5729237,Ramsey Heights,1,roadway,1.075,15.0d 06:00:00,D,1,B1,2567_1,15.0
2572_1_B1,ADJACENT/BEHIND #729 BLACKWOOD CR.,,19.0d 14:45:00,,53.42905014,-113.5005662,Blackburne,1,neighbourhood,0.5,19.0d 06:00:00,D,1,B1,2572_1,19.0
2604_1_B1,High Level Bridge to Pumping Station,,18.0d 14:45:00,,53.52840712,-113.5161759,RiverValley Walterdale,1,neighbourhood,0.296,18.0d 06:00:00,D,1,B1,2604_1,18.0
2604_1_B1,High Level Bridge to Pumping Station,,11.0d 14:45:00,,53.52840712,-113.5161759,RiverValley Walterdale,1,neighbourhood,0.296,11.0d 06:00:00,D,1,B1,2604_1,11.0
2635_1_B1,Windermere Blvd & Watson Landing,,13.0d 14:45:00,,53.43809452,-113.626929,Windermere,1,neighbourhood,0.7385,13.0d 06:00:00,D,1,B1,2635_1,13.0
2663_1_B1,156 St. to Riverbend Road,,11.0d 14:45:00,,53.46168881,-113.5921063,Falconer Heights,1,neighbourhood,0.5,11.0d 06:00:00,D,1,B1,2663_1,11.0
2779_1_B1,34 AVE 111 - 119 ST,,16.0d 14:45:00,,53.46700039,-113.5282546,Greenfield,1,roadway,1.0368,16.0d 06:00:00,D,1,B1,2779_1,16.0
2783_1_B1,1331& 1333 RUTHERFORD ROAD,,20.0d 14:45:00,,53.42004531,-113.5343542,Rutherford,1,neighbourhood,1.4,20.0d 06:00:00,D,1,B1,2783_1,20.0
2826_1_B1,1697 Toane WYND,,18.0d 14:45:00,,53.44666423,-113.5880112,Terwilleger TOWNE,1,neighbourhood,0.5,18.0d 06:00:00,D,1,B1,2826_1,18.0
2827_1_B1,Hayworth Crescent to Hudson Boulevard/Rabbit Hill Road - Trans Alta R.O.W. to Hodgson Blv.,,17.0d 14:45:00,,53.4606655,-113.5639836,Hodgson,1,neighbourhood,0.2725,17.0d 06:00:00,D,1,B1,2827_1,17.0
2835_1_B1,Ellerslie Rd (9 Ave. SW) N. & Center - SCHOOL to 111 Street,,18.0d 14:45:00,,53.42502398,-113.5198188,MacEwan,1,neighbourhood,0.2,18.0d 06:00:00,D,1,B1,2835_1,18.0
2875_1_B1,504 HODGSON ROAD & HODGSON BOULEVARD,,17.0d 14:45:00,,53.46002767,-113.557942,Hodgson,1,neighbourhood,0.2585,17.0d 06:00:00,D,1,B1,2875_1,17.0
2997_1_B1,55 AVE-143 ST,,11.0d 14:45:00,,53.49160219,-113.5693168,Brookside,1,neighbourhood,1.577,11.0d 06:00:00,D,1,B1,2997_1,11.0
2998_1_B1,5803-148 ST,,10.0d 14:45:00,,53.49441798,-113.5738646,Brander Gardens,1,neighbourhood,0.298,10.0d 06:00:00,D,1,B1,2998_1,10.0
3003_1_B1,45 AVE-132 ST,,20d 14:45:00,,53.48413627,-113.558145,Whitemud Creek Ravine North,1,neighbourhood,0.5835,10d 06:00:00,D,10,B1,3003_1,
3077_1_B1,7085 South Terwilleger Drive,,17.0d 14:45:00,,53.44033541,-113.5719223,Terwilleger South,1,neighbourhood,0.74,17.0d 06:00:00,D,1,B1,3077_1,17.0
3249_1_B1,W/S & C 111 ST: 23 AVE - BRIDGE (RAVINE),,16.0d 14:45:00,,53.447934039,-113.516023976,BLACKMUD CREEK RAVINE,1,roadway,0.5455,16.0d 06:00:00,D,1,B1,3249_1,16.0
3339_1_B1,111 ST - 40 AVE - 34AVE,,16.0d 14:45:00,,53.469738257,-113.517056628,GREENFIELD,1,roadway,0.1715,16.0d 06:00:00,D,1,B1,3339_1,16.0
3350_1_B1,111 ST: BRIDGE (RAVINE) - South to 9 AVE & bus stop,,16.0d 14:45:00,,53.44303232,-113.5176947,Twin Brooks,1,roadway,0.7785,16.0d 06:00:00,D,1,B1,3350_1,16.0
3371_1_B1,111 ST - 34 AVE - 29A AVE/Saddleback RD,,16.0d 14:45:00,,53.464060026,-113.517121623,Sweet Grass,1,roadway,1.048,16.0d 06:00:00,D,1,B1,3371_1,16.0
3378_1_B1,2007 - Leger Road,,17.0d 14:45:00,,53.45546943,-113.5804006,Leger,1,neighbourhood,0.7615,17.0d 06:00:00,D,1,B1,3378_1,17.0
3444_1_B1,Tory Rd. - Tory Gate to Behind #2431 Tegler Green,,19.0d 14:45:00,,53.45057907,-113.5716099,Terwilleger TOWNE,1,neighbourhood,1.15,19.0d 06:00:00,D,1,B1,3444_1,19.0
3499_1_B1,53 AVE-RIVERBEND ROAD,,20d 14:45:00,,53.49231021,-113.5754612,Brander Gardens,1,neighbourhood,3.7255,10d 06:00:00,D,10,B1,3499_1,
3514_1_B1,across from #509 - to #455 Heffeerman Dr.,,17.0d 14:45:00,,53.47368916,-113.601687,Henderson,1,neighbourhood,0.167,17.0d 06:00:00,D,1,B1,3514_1,17.0
3527_1_B1,23 AVE-104-111 ST,,12.0d 14:45:00,,53.45432673,-113.5031819,Ermineskin,1,roadway,1.616,12.0d 06:00:00,D,1,B1,3527_1,12.0
3540_1_B1,RHATIGAN ROAD EAST-RIVERBEND ROAD,,11.0d 14:45:00,,53.47417407,-113.5851729,Rhatigan Ridge,1,neighbourhood,3.5155,11.0d 06:00:00,D,1,B1,3540_1,11.0
3544_1_B1,1765 Tomlinson Common,,18.0d 14:45:00,,53.44893029,-113.5850845,Terwilleger TOWNE,1,neighbourhood,1.5355,18.0d 06:00:00,D,1,B1,3544_1,18.0
3552_1_B1,Todd Landing to Talor Close,,12.0d 14:45:00,,53.44867113,-113.5741307,Terwilleger TOWNE,1,neighbourhood,5.7665,12.0d 06:00:00,D,1,B1,3552_1,12.0
3552_1_B1,Todd Landing to Talor Close,,19.0d 14:45:00,,53.44867113,-113.5741307,Terwilleger TOWNE,1,neighbourhood,5.7665,19.0d 06:00:00,D,1,B1,3552_1,19.0
3579_1_B1,Rabbit Hill Rd - Mullen Rd,,17.0d 14:45:00,,53.43852136,-113.5689186,Magrath,1,neighbourhood,1.3565,17.0d 06:00:00,D,1,B1,3579_1,17.0
3685_1_B1,Ellerslie Road & Gateway Boulevard,,15.0d 14:45:00,,53.40804985,-113.5015587,Ellerslie Industrial,1,roadway,0.622,15.0d 06:00:00,D,1,B1,3685_1,15.0
3754_1_B1,TRANS ALTA R.O.W. to #907 Hollingsworth Bend,,17.0d 14:45:00,,53.45718006,-113.5531177,Hodgson,1,neighbourhood,0.6535,17.0d 06:00:00,D,1,B1,3754_1,17.0
3770_1_B1,503 HODGSON ROAD & HODGSON BOULEVARD,,17.0d 14:45:00,,53.45832421,-113.5585573,Hodgson,1,neighbourhood,1.728,17.0d 06:00:00,D,1,B1,3770_1,17.0
3802_1_B1,150 ST-51-58 AVE,,14.0d 14:45:00,,53.49270487,-113.5802592,Brander Gardens,1,neighbourhood,0.25,14.0d 06:00:00,D,1,B1,3802_1,14.0
3834_1_B1,North side CPR TRACKS - 106 ST,,16.0d 14:45:00,,53.480840188,-113.497345967,Empire Park,1,roadway,0.2525,16.0d 06:00:00,D,1,B1,3834_1,16.0
3850_1_B1,BTWN 4237 & 4233 TERWILLEGER VISTA,,18.0d 14:45:00,,53.44785208,-113.5826431,Terwilleger TOWNE,1,neighbourhood,0.5915,18.0d 06:00:00,D,1,B1,3850_1,18.0
3857_1_B1,745 Leger Way/765 Leger WAY/Leger Rd - 23 Ave to Leger Way,,14.0d 14:45:00,,53.45868831,-113.5819213,Leger,1,neighbourhood,3.6595,14.0d 06:00:00,D,1,B1,3857_1,14.0
3864_1_B1,(Bearspaw Drive West)11-15 AVE & 109-110A ST,,17.0d 14:45:00,,53.44307737,-113.5081567,Bearspaw,1,neighbourhood,2.17,17.0d 06:00:00,D,1,B1,3864_1,17.0
3884_1_B1,TERWILLEGAR DR - TRANSALTA RIGHT OF WAY,,15.0d 14:45:00,,53.466594288,-113.57476875,Leger,1,roadway,0.2375,15.0d 06:00:00,D,1,B1,3884_1,15.0
3942_1_B1,BULYEA ROAD - TRANSALTA RIGHT OF WAY,,15.0d 14:45:00,,53.46441683,-113.5707061,Ogilvie Ridge,1,roadway,0.821,15.0d 06:00:00,D,1,B1,3942_1,15.0
3973_1_B1,behind #1246 McAllister Way to MacEwan Road,,20.0d 14:45:00,,53.42951061,-113.5308588,MacEwan,1,neighbourhood,1.4255,20.0d 06:00:00,D,1,B1,3973_1,20.0
4069_1_B1,Various,,20.0d 14:45:00,,53.42876143,-113.534152,MacEwan,1,neighbourhood,2.217,20.0d 06:00:00,D,1,B1,4069_1,20.0
4116_1_B1,Behind #1544 Blackmore Way Sw,,20.0d 14:45:00,,53.41808665,-113.5030939,Blackmud Creek,1,neighbourhood,0.3695,20.0d 06:00:00,D,1,B1,4116_1,20.0
4149_1_B1,James Mowat Tr - Rutherford Road,,20.0d 14:45:00,,53.42102786,-113.516886,Rutherford,1,neighbourhood,0.75,20.0d 06:00:00,D,1,B1,4149_1,20.0
4151_1_B1,"11 AVE-108 ST, Bearspaw Drive East to Pipeline R.O.W.",,18.0d 14:45:00,,53.44370508,-113.5042992,Bearspaw,1,neighbourhood,0.379,18.0d 06:00:00,D,1,B1,4151_1,18.0
4203_1_B1,from 351 Magrath Blv. To 3816 MacNeil Heath,,18.0d 14:45:00,,53.44646359,-113.5586639,MacTaggert,1,neighbourhood,0.412,18.0d 06:00:00,D,1,B1,4203_1,18.0
4254_1_B1,23 AVE-111-119 ST,,16.0d 14:45:00,,53.45382971,-113.524939,Skyrattler,1,roadway,0.5,16.0d 06:00:00,D,1,B1,4254_1,16.0
4304_1_B1,41 AVE-ASPEN DRIVE WEST,,13.0d 14:45:00,,53.47717103,-113.552654,Aspen Gardens,1,neighbourhood,0.34,13.0d 06:00:00,D,1,B1,4304_1,13.0
4330_1_B1,Ambleside Drive - Armitage Cescent,,17.0d 14:45:00,,53.43232913,-113.6038227,Ambleside,1,neighbourhood,0.9705,17.0d 06:00:00,D,1,B1,4330_1,17.0
4357_1_B1,Rabbit Hill Road - Terwillegar Drive,,14.0d 14:45:00,,53.46160218,-113.5773678,Carter Crest,1,neighbourhood,0.73,14.0d 06:00:00,D,1,B1,4357_1,14.0
4380_1_B1,Blackmud Creek Dr.:111 St - 975 Blackmud Creek Cr.,,17.0d 14:45:00,,53.4195739,-113.5143997,Blackmud Creek,1,neighbourhood,3.1105,17.0d 06:00:00,D,1,B1,4380_1,17.0
4395_1_B1,James Mowat Trail (111 St.) to Rutherford Road -Blackmud Creek Drive to 21 Ave. SW,,17.0d 14:45:00,,53.41799558,-113.5193239,Rutherford,1,neighbourhood,2.5,17.0d 06:00:00,D,1,B1,4395_1,17.0
4451_1_B1,23 Ave. - Rabbit Hill rd.,,15.0d 14:45:00,,53.4549988,-113.5794313,Terwilleger TOWNE,1,roadway,0.714,15.0d 06:00:00,D,1,B1,4451_1,15.0
4462_1_B1,29A AVE-104-111 ST,,11.0d 14:45:00,,53.46158341,-113.5056006,Steinhauer,1,neighbourhood,3.186,11.0d 06:00:00,D,1,B1,4462_1,11.0
4517_1_B1,Allard Link & Adamson Dr,,19.0d 14:45:00,,53.40280072,-113.5180914,Allard,1,neighbourhood,0.6625,19.0d 06:00:00,D,1,B1,4517_1,19.0
4528_1_B1,156st & South Terwillegar Blvd,,18.0d 14:45:00,,53.44023714,-113.5837237,Terwillegar South,1,neighbourhood,0.6615,18.0d 06:00:00,D,1,B1,4528_1,18.0
4542_1_B1,4032 Mactaggert Drive,,18.0d 14:45:00,,53.43886273,-113.5612599,MacTaggert,1,neighbourhood,0.269,18.0d 06:00:00,D,1,B1,4542_1,18.0
4590_1_B1,2035 Armitage Green SW,,17.0d 14:45:00,,53.4298755,-113.6043016,Ambleside,1,neighbourhood,0.3725,17.0d 06:00:00,D,1,B1,4590_1,17.0
4668_1_B1,Whitelaw Gate - 3250 Whitelaw Drive & Btw. 3427 West Landing & 3320 West Court,,13.0d 14:45:00,,53.44298834,-113.6089682,Windermere North,1,neighbourhood,0.427,13.0d 06:00:00,D,1,B1,4668_1,13.0
4679_1_B1,4032 Mactaggert Drive,,18.0d 14:45:00,,53.44011896,-113.5627694,MacTaggert,1,neighbourhood,0.331,18.0d 06:00:00,D,1,B1,4679_1,18.0
4754_1_B1,23 Ave. - Rabbit Hill Road to Bridge,,20d 14:45:00,,53.45423656,-113.5605874,Hodgson,1,roadway,0.2725,10d 06:00:00,D,10,B1,4754_1,
4755_1_B1,Road Buffer 23 Ave.- Terwilleger Drive to Rabbit Hill Road,,20d 14:45:00,,53.45499923,-113.577384,Leger,1,roadway,0.657,10d 06:00:00,D,10,B1,4755_1,
5083_1_B1,Maynard Way to 4132 Mactaggert Drive,,17.0d 14:45:00,,53.44279028,-113.5581513,MacTaggert,1,neighbourhood,0.9,17.0d 06:00:00,D,1,B1,5083_1,17.0
5544_1_B1,South Terwillegar Dr & Shaske Dr,,17.0d 14:45:00,,53.43681285,-113.5782311,Terwillegar South,1,neighbourhood,1.217,17.0d 06:00:00,D,1,B1,5544_1,17.0
5545_1_B1,156st & South Terwillegar Blvd,,13.0d 14:45:00,,53.43914772,-113.5855744,Terwillegar South,1,neighbourhood,0.358,13.0d 06:00:00,D,1,B1,5545_1,13.0
6026_1_B1,2069 HADDOW DRIVE,,18.0d 14:45:00,,53.45361451,-113.595946,Haddow,1,neighbourhood,3.884,18.0d 06:00:00,D,1,B1,6026_1,18.0
7047_1_B1,171 Street - Wasburn Drive,,13.0d 14:45:00,,53.43026811,-113.6181138,Windermere,1,neighbourhood,0.627,13.0d 06:00:00,D,1,B1,7047_1,13.0
7048_1_B1,Terwillegar Common & Towne Center Blvd,,13.0d 14:45:00,,53.44557411,-113.5760306,Terwilleger TOWNE,1,neighbourhood,0.307,13.0d 06:00:00,D,1,B1,7048_1,13.0
7269_1_B1,141 St south past park NEW,,20d 14:45:00,,53.4062438,-113.5707427,Chappelle Gardens,1,neighbourhood,0.8965,10d 06:00:00,D,10,B1,7269_1,
7409_1_B1,Mullen Rd & Mullen Way NEW,,19.0d 14:45:00,,53.43527717,-113.5699569,MacTaggert,1,neighbourhood,0.45,19.0d 06:00:00,D,1,B1,7409_1,19.0
7469_1_B1,#1524 Rutherford Road,,18.0d 14:45:00,,53.415095585,-113.537049321,Rutherford,1,neighbourhood,0.4658,18.0d 06:00:00,D,1,B1,7469_1,18.0
7569_1_B1,Ellerslie Road - 100 Street SW,,20d 14:45:00,,53.42584743,-113.4918388,Ellerslie SW,1,roadway,0.5055,10d 06:00:00,D,10,B1,7569_1,
