Id,job-id,type,name,address,latitude,longitude,Service-duration-1,start-time,end-time,quantity,required-skills,priority,Level,raw-id,day,service-duration,raw_id,Day
666.0_0_B1,,D,WALKER,ROAD RIGHT OF WAY: S/S ELLERSLIE RD,53.424798362,-113.419698009,0.0420833333,0d 06:00:00,9d 14:45:00,1,roadway,10,B1,666.0_0,,0.0332236842,666.0,
996.0_0_B1,,D,GREENVIEW,GREENOCH CRESCENT-W 50 ST-GOLF COURS,53.47794898,-113.4207306,0.0341666667,10.0d 06:00:00,10.0d 14:45:00,1,neighbourhood,1,B1,996.0_0,10.0,0.0269736842,996.0,
1048.0_0_B1,,D,CHARLESWORTH,CENTER MEIDAIN - WATT BLVD TO WATT COMMON,53.42474558,-113.4309533,0.0415277778,0d 06:00:00,9d 14:45:00,1,roadway,10,B1,1048.0_0,,0.0327850877,1048.0,
1050.0_0_B1,,D,CHARLESWORTH,SOUTH BUFFER - WATT BLVD TO WATT COMMON,53.42493252,-113.4311662,0.0830555556,0d 06:00:00,9d 14:45:00,1,roadway,10,B1,1050.0_0,,0.0655701754,1050.0,
1113.0_0_B1,,D,PARSONS INDUSTRIAL,WS/C 91 ST BTWN 23 & 28 AVE,53.45538745,-113.467122,0.1598611111,0d 06:00:00,9d 14:45:00,1,roadway,10,B1,1113.0_0,,0.1262061404,1113.0,
1313.0_0_B1,,D,LARKSPUR,37-38 AVE & 32-34 ST,53.47213596,-113.3919408,0.0505555556,10.0d 06:00:00,10.0d 14:45:00,1,neighbourhood,1,B1,1313.0_0,10.0,0.0399122807,1313.0,
1450.0_0_B1,,D,RICHFIELD,BTWN-85-91 ST,53.46912852,-113.4624634,0.0533333333,10.0d 06:00:00,10.0d 14:45:00,1,neighbourhood,1,B1,1450.0_0,10.0,0.0421052632,1450.0,
1792.0_0_B1,,D,KINISKI GARDENS,NORTH SIDE/C OF 38 AVE-BTWN 38 ST-WW AT,53.47299555,-113.3954121,0.0186111111,0d 06:00:00,9d 14:45:00,1,roadway,10,B1,1792.0_0,,0.0146929825,1792.0,
1814.0_0_B1,,D,LARKSPUR,43A AVE - WHITEMUD DRIVE WEST OF 23 ST,53.48249405,-113.3806965,0.0738888889,10.0d 06:00:00,10.0d 14:45:00,1,neighbourhood,1,B1,1814.0_0,10.0,0.0583333333,1814.0,
1896.0_0_B1,,D,MINCHAU,N/S 34 AVE: 34 ST - MILLWOODS RD E,53.46389669,-113.4003169,0.0829166667,0d 06:00:00,9d 14:45:00,1,roadway,10,B1,1896.0_0,,0.0654605263,1896.0,
1944.0_0_B1,,D,KINISKI GARDENS,E/S & C 34 ST: WHITEMUD DR - 38 AVE,53.48098194,-113.393479,0.0854166667,0d 06:00:00,9d 14:45:00,1,roadway,10,B1,1944.0_0,,0.0674342105,1944.0,
1967.0_0_B1,,D,CRAWFORD PLAINS,SOUTH SIDE MILLWOODS RD S-BTWN 50 ST-C,53.44403276,-113.4110643,0.1320833333,0d 06:00:00,9d 14:45:00,1,roadway,10,B1,1967.0_0,,0.1042763158,1967.0,
2705.0_0_B1,,D,WEINLOS,SOUTH SIDE 34 AVE BTWN 50 ST-MILLWOODS RD E,53.46433258,-113.4123796,0.10125,0d 06:00:00,9d 14:45:00,1,roadway,10,B1,2705.0_0,,0.0799342105,2705.0,
2761.0_0_B1,,D,MEYOKUMIN,WEST SIDE 50 ST BTWN MILLWOODS RD S-23,53.44946359,-113.4197467,0.1011111111,0d 06:00:00,9d 14:45:00,1,roadway,10,B1,2761.0_0,,0.0798245614,2761.0,
2870.0_0_B1,,D,POLLARD MEADOWS,N/S & W/S MILL WOODS ROAD: 17 AVE - 46 ST,53.44309506,-113.4053314,0.0173611111,0d 06:00:00,9d 14:45:00,1,roadway,10,B1,2870.0_0,,0.0137061404,2870.0,
3044_0_B1,,D,LEE RIDGE,SS 38 AVE BTWN MILLBOURNE RD E & 66 ST,53.47414851,-113.4419587,0.0325,0d 06:00:00,9d 14:45:00,1,roadway,10,B1,3044_0,,0.0256578947,3044,
3119_0_B1,,D,MEYONOHK,NORTH SIDE 23 AVE-BTWN 91 ST-MILLWOODS,53.45249733,-113.4573378,0.1469444444,0d 06:00:00,9d 14:45:00,1,roadway,10,B1,3119_0,,0.1160087719,3119,
3432_0_B1,,D,MILL WOODS GOLF COURSE,EAST SIDE/C 50 ST-BTWN 40 AVE-WHITEMUD,53.48054226,-113.417776,0.1388888889,0d 06:00:00,9d 14:45:00,1,roadway,10,B1,3432_0,,0.1096491228,3432,
3455_0_B1,,D,MINCHAU,EAST SIDE/WS MILLWOODS RD E BTWN 34 & 3,53.46615353,-113.407974,0.0608333333,0d 06:00:00,9d 14:45:00,1,roadway,10,B1,3455_0,,0.0480263158,3455,
3492_0_B1,,D,BISSET,N/S 23 AVE: 38 ST - 34 ST,53.45401563,-113.3968153,0.0266666667,0d 06:00:00,9d 14:45:00,1,roadway,10,B1,3492_0,,0.0210526316,3492,
3542_0_B1,,D,LEE RIDGE,WS 66 ST: 34 AVE - 38 AVE,53.46988496,-113.438231,0.1077777778,0d 06:00:00,9d 14:45:00,1,roadway,10,B1,3542_0,,0.0850877193,3542,
3554_0_B1,,D,PARSONS INDUSTRIAL,23 AVE: PARSONS ROAD - 91 ST,53.45203938,-113.4729644,0.0922222222,0d 06:00:00,9d 14:45:00,1,roadway,10,B1,3554_0,,0.0728070175,3554,
3653_0_B1,,D,KINISKI GARDENS,SOUTH SIDE 38 AVE-BTWN KAASA RD E-WW A,53.47276949,-113.3957114,0.0225,0d 06:00:00,9d 14:45:00,1,roadway,10,B1,3653_0,,0.0177631579,3653,
3687_0_B1,,D,HILLVIEW,NORTH SIDE 34 AVE-66-50 ST,53.46555259,-113.4282364,0.0916666667,0d 06:00:00,9d 14:45:00,1,roadway,10,B1,3687_0,,0.0723684211,3687,
3693_0_B1,,D,POLLARD MEADOWS,NORTH SIDE MILLWOODS RD S BTWN 50-46 S,53.44525572,-113.4146298,0.0563888889,0d 06:00:00,9d 14:45:00,1,roadway,10,B1,3693_0,,0.0445175439,3693,
3780_0_B1,,D,MICHAELS PARK,WEST SIDE 66 ST BTWN 38 AVE-WHITEMUD D,53.47769273,-113.4412082,0.1030555556,0d 06:00:00,9d 14:45:00,1,roadway,10,B1,3780_0,,0.0813596491,3780,
3829_0_B1,,D,DALY GROVE,EAST SIDE MILLWOODS RD E. BTWN 17-20 AV,53.44864509,-113.4054258,0.0386111111,0d 06:00:00,9d 14:45:00,1,roadway,10,B1,3829_0,,0.0304824561,3829,
3847_0_B1,,D,MICHAELS PARK,NORTH SIDE 38 AVE BTWN 76-66 ST,53.47437214,-113.4429092,0.0505555556,0d 06:00:00,9d 14:45:00,1,roadway,10,B1,3847_0,,0.0399122807,3847,
3883_0_B1,,D,TAWA,E/S & C 66 ST: 28 AVE - 34 AVE,53.46287218,-113.4348846,0.0775,0d 06:00:00,9d 14:45:00,1,roadway,10,B1,3883_0,,0.0611842105,3883,
3917_0_B1,,D,BISSET,E/S MILLWOODS RD E: 23 AVE - 34 AVE,53.46009893,-113.4071101,0.0976388889,0d 06:00:00,9d 14:45:00,1,roadway,10,B1,3917_0,,0.0770833333,3917,
3921_0_B1,,D,MILL WOODS GOLF COURSE,EAST SIDE/C 66 ST: 38 AVE-WHITEMUD DRIVE,53.47947008,-113.4412674,0.1486111111,0d 06:00:00,9d 14:45:00,1,roadway,10,B1,3921_0,,0.1173245614,3921,
3951_0_B1,,D,KINISKI GARDENS,W/S 34 ST: WHITEMUD DR - 38 AVE,53.4802683,-113.3939614,0.0377777778,0d 06:00:00,9d 14:45:00,1,roadway,10,B1,3951_0,,0.0298245614,3951,
3977_0_B1,,D,GREENVIEW,WEST SIDE 50 ST BTWN 38-40 AVE,53.4731319,-113.4160265,0.0402777778,0d 06:00:00,9d 14:45:00,1,roadway,10,B1,3977_0,,0.0317982456,3977,
3990_0_B1,,D,MINCHAU,N/S 34 AVE: 50 ST - MILLWOODS RD E,53.46466558,-113.4133456,0.0844444444,0d 06:00:00,9d 14:45:00,1,roadway,10,B1,3990_0,,0.0666666667,3990,
4034_0_B1,,D,MINCHAU,EAST SIDE/C 50 ST 38 - 40 AVE,53.47302522,-113.4155722,0.0626388889,0d 06:00:00,9d 14:45:00,1,roadway,10,B1,4034_0,,0.0494517544,4034,
4039_0_B1,,D,KING EDWARD PARK,WEST SIDE 50 ST BTWN 28-34 AVE,53.46305567,-113.4211035,0.0948611111,0d 06:00:00,9d 14:45:00,1,roadway,10,B1,4039_0,,0.0748903509,4039,
4082_0_B1,,D,CRAWFORD PLAINS,E/S & C 50 ST BTWN 13 AVE-MILLWOODS RD S,53.44377569,-113.4187286,0.0491666667,0d 06:00:00,9d 14:45:00,1,roadway,10,B1,4082_0,,0.0388157895,4082,
4120_0_B1,,D,HILLVIEW,WEST SIDE OF 50 ST: 34 Ave - 38 Ave,53.46764427,-113.4186163,0.0647222222,0d 06:00:00,9d 14:45:00,1,roadway,10,B1,4120_0,,0.0510964912,4120,
4204_0_B1,,D,TAWA,SOUTH SIDE/C 34 AVE-BTWN-66-50 ST,53.46524425,-113.4282146,0.1316666667,0d 06:00:00,9d 14:45:00,1,roadway,10,B1,4204_0,,0.1039473684,4204,
4221_0_B1,,D,KAMEYOSEK,WEST SIDE 66 ST BTWN 28-34 AVE,53.46307087,-113.4353435,0.0775,0d 06:00:00,9d 14:45:00,1,roadway,10,B1,4221_0,,0.0611842105,4221,
4343_0_B1,,D,TAMARACK,WHITEMUD DRIVE : 17 ST. TO ROW,53.481596395,-113.365765607,0.2233333333,0d 06:00:00,9d 14:45:00,1,roadway,10,B1,4343_0,,0.1763157895,4343,
4344_0_B1,,D,BISSET,W/S & C 34 St: 34 Ave - 23 Ave,53.45868909,-113.3941215,0.2311111111,0d 06:00:00,9d 14:45:00,1,roadway,10,B1,4344_0,,0.1824561404,4344,
4365_0_B1,,D,RICHFIELD,SOUTH SIDE/C 34 AVE-91 ST-MILLWOODS RD,53.46504899,-113.4592898,0.125,0d 06:00:00,9d 14:45:00,1,roadway,10,B1,4365_0,,0.0986842105,4365,
4483_0_B1,,D,MINCHAU,EAST SIDE/C 50 ST BTWN 34 & 38 AVE,53.46759607,-113.4181133,0.0533333333,0d 06:00:00,9d 14:45:00,1,roadway,10,B1,4483_0,,0.0421052632,4483,
4533_0_B1,,D,TAMARACK,East Side & Center 17 St: Whitemud Drive - 34 Av,53.4764141,-113.3685041,0.0495833333,0d 06:00:00,9d 14:45:00,1,roadway,10,B1,4533_0,,0.0391447368,4533,
4688_0_B1,,D,PYLYPOW INDUSTRIAL,51 Avenue: 47 Street,53.4880411,-113.4121271,0.1188888889,0d 06:00:00,9d 14:45:00,1,roadway,10,B1,4688_0,,0.0938596491,4688,
4689_0_B1,,D,ELLERSLIE INDUSTRIAL,91 ST E/W Parsons Rd - 25 Avenue,53.41468495,-113.4813885,0.1334722222,0d 06:00:00,9d 14:45:00,1,roadway,10,B1,4689_0,,0.105372807,4689,
5322_0_B1,,D,THE ORCHARDS AT ELLERSLIE,25 Ave SW: 90 St - 91 St,53.41026169,-113.4784126,0.0706944444,0d 06:00:00,9d 14:45:00,1,roadway,10,B1,5322_0,,0.0558114035,5322,
5725_0_B1,,D,SILVER BERRY,N-side 23 Ave NW: 17 St - 34 St,53.45410051,-113.3852782,0.0840277778,0d 06:00:00,9d 14:45:00,1,roadway,10,B1,5725_0,,0.0663377193,5725,
5845_0_B1,,D,WALKER,66 St: 21 Ave SW to Ellerslie Rd,53.417599851,-113.442478953,0.0343055556,0d 06:00:00,9d 14:45:00,1,roadway,10,B1,5845_0,,0.0270833333,5845,
7149_0_B1,,D,WILDROSE/TAMARACK,17 St : Silverberry Rd - 36 Ave NW,53.469401597,-113.368503714,0.1868055556,0d 06:00:00,9d 14:45:00,1,roadway,10,B1,7149_0,,0.1474780702,7149,
9920_0_B1,,D,CHARLESWORTH,50 St - 1 AVE to 4 Ave,53.43049708,-113.418346324,0.0634722222,0d 06:00:00,9d 14:45:00,1,roadway,10,B1,9920_0,,0.0501096491,9920,
9921_0_B1,,D,CHARLESWORTH,50 St - 1 AVE to 4 Ave,53.430530068,-113.417946355,0.0602777778,0d 06:00:00,9d 14:45:00,1,roadway,10,B1,9921_0,,0.0475877193,9921,
9922_0_B1,,D,CHARLESWORTH,50 St - 4 AVE to ELLERSLIE RD,53.426737882,-113.41795327,0.0691666667,0d 06:00:00,9d 14:45:00,1,roadway,10,B1,9922_0,,0.0546052632,9922,
10155_0_B1,,D,ROPER INDUSTRIAL,WHITEMUD DRIVE,53.487360679,-113.420127637,0.0852777778,0d 06:00:00,9d 14:45:00,1,roadway,10,B1,10155_0,,0.0673245614,10155,
674_0_B1,,D,Keheewin,North of houses 23 Ave & 104 St (access from undeveloped),53.45380976,-113.4997833,0.1388888889,0d 06:00:00,9d 14:45:00,1,roadway,10,B1,674_0,,0.1096491228,674,
9962_0_B1,,D,Leger,23 AVE - 34 AVE,53.461024317,-113.491651782,0.0563888889,0d 06:00:00,9d 14:45:00,1,roadway,10,B1,9962_0,,0.0445175439,9962,
11.0_1_B1,,D,KINISKI GARDENS,NORTH OF 3453-35 ST,53.46538095,-113.3947684,0.0047222222,10d 06:00:00,20d 14:45:00,1,neighbourhood,10,B1,11.0_1,,0.0037280702,11.0,5.0
14.0_1_B1,,D,SUMMERSIDE,88 St: West Side Summerside Grande Blvd - Savaryn Drive,53.41533314,-113.4674006,0.0158333333,10d 06:00:00,20d 14:45:00,1,neighbourhood,10,B1,14.0_1,,0.0125,14.0,5.0
72.0_1_B1,,D,JACKSON HEIGHTS,N/S SIDE BTWN 50 ST & JACKSON ROAD,53.48499448,-113.4147234,0.0031944444,10d 06:00:00,20d 14:45:00,1,neighbourhood,10,B1,72.0_1,,0.0025219298,72.0,5.0
100.0_1_B1,,D,GREENVIEW,GRAND MEADOW CRESENT - E. OF 62 ST,53.47648078,-113.4318203,0.0011111111,10d 06:00:00,20d 14:45:00,1,neighbourhood,10,B1,100.0_1,,0.000877193,100.0,4.0
101.0_1_B1,,D,GREENVIEW,56 ST - 41 AVE,53.47706533,-113.4224579,0.0066666667,10d 06:00:00,20d 14:45:00,1,neighbourhood,10,B1,101.0_1,,0.0052631579,101.0,5.0
128.0_1_B1,,D,STRATHCONA INDUSTRIAL PARK,N/S 34 AVE: 103 ST - 91 ST,53.4660411,-113.4728329,0.0584722222,17.0d 06:00:00,17.0d 14:45:00,1,roadway,1,B1,128.0_1,17.0,0.0461622807,128.0,1.0
164.0_1_B1,,D,CRAWFORD PLAINS,12A AVE - BTWN 45 & 46 ST,53.44181187,-113.4096613,0.0038888889,10d 06:00:00,20d 14:45:00,1,neighbourhood,10,B1,164.0_1,,0.0030701754,164.0,6.0
165.0_1_B1,,D,CRAWFORD PLAINS,36 ST - 11 AVE,53.44014982,-113.3985109,0.0009722222,10d 06:00:00,20d 14:45:00,1,neighbourhood,10,B1,165.0_1,,0.0007675439,165.0,6.0
166.0_1_B1,,D,HILLVIEW,HILLVIEW CRESENT (53 ST &34 A AVE),53.46604928,-113.42359,0.0018055556,10d 06:00:00,20d 14:45:00,1,neighbourhood,10,B1,166.0_1,,0.0014254386,166.0,5.0
169.0_1_B1,,D,WILD ROSE,Between 1921 & 2103 - 37 Ave,53.471585,-113.3732625,0.0006944444,10d 06:00:00,20d 14:45:00,1,neighbourhood,10,B1,169.0_1,,0.0005482456,169.0,4.0
170.0_1_B1,,D,WILD ROSE,Between 1921 & 2103 - 36 Ave,53.47072251,-113.3732235,0.0006944444,10d 06:00:00,20d 14:45:00,1,neighbourhood,10,B1,170.0_1,,0.0005482456,170.0,3.0
207.0_1_B1,,D,ELLERSLIE,N/S & C ELLERSLIE RD: 91 ST - EDWARDS DRI,53.4249867,-113.4648967,0.0515277778,15.0d 06:00:00,15.0d 14:45:00,1,roadway,1,B1,207.0_1,15.0,0.0406798246,207.0,2.0
217.0_1_B1,,D,GREENVIEW,55 ST - 39 AVE,53.47495511,-113.422836,0.0151388889,10d 06:00:00,20d 14:45:00,1,neighbourhood,10,B1,217.0_1,,0.0119517544,217.0,0.0
218.0_1_B1,,D,GREENVIEW,257 GREENOCH CRESENT,53.47853544,-113.424299,0.0016666667,10d 06:00:00,20d 14:45:00,1,neighbourhood,10,B1,218.0_1,,0.0013157895,218.0,0.0
231.0_1_B1,,D,DALY GROVE,36 ST-17-17B AVE,53.44562432,-113.397116,0.0011111111,10d 06:00:00,20d 14:45:00,1,neighbourhood,10,B1,231.0_1,,0.000877193,231.0,6.0
232.0_1_B1,,D,GREENVIEW,51 ST -39 A AVE,53.47406098,-113.4179049,0.0098611111,10d 06:00:00,20d 14:45:00,1,neighbourhood,10,B1,232.0_1,,0.0077850877,232.0,0.0
236.0_1_B1,,D,DALY GROVE,36 ST-20 AVE,53.45106651,-113.3981109,0.0013888889,10d 06:00:00,20d 14:45:00,1,neighbourhood,10,B1,236.0_1,,0.0010964912,236.0,6.0
237.0_1_B1,,D,CRAWFORD PLAINS,36 ST - 12A AVE,53.44011451,-113.4001857,0.0016666667,10d 06:00:00,20d 14:45:00,1,neighbourhood,10,B1,237.0_1,,0.0013157895,237.0,6.0
255.0_1_B1,,D,BISSET,35 ST-33 AVE,53.46321738,-113.3948895,0.0009722222,10d 06:00:00,20d 14:45:00,1,neighbourhood,10,B1,255.0_1,,0.0007675439,255.0,0.0
256.0_1_B1,,D,BISSET,NORTH OF 28A AVE BTWN 34-37 ST,53.45953514,-113.3959923,0.0438888889,10d 06:00:00,20d 14:45:00,1,neighbourhood,10,B1,256.0_1,,0.0346491228,256.0,0.0
265.0_1_B1,,D,MICHAELS PARK,EAST OF 76 ST BTWN 41 AVE & PARK AREA,53.47890847,-113.4505464,0.0026388889,10d 06:00:00,20d 14:45:00,1,neighbourhood,10,B1,265.0_1,,0.0020833333,265.0,3.0
266.0_1_B1,,D,MICHAELS PARK,BTWN-WHITEMUD DRIVE-PIPELINE,53.4813995,-113.4445099,0.0497222222,10d 06:00:00,20d 14:45:00,1,neighbourhood,10,B1,266.0_1,,0.039254386,266.0,6.0
267.0_1_B1,,D,MICHAELS PARK,NEXT TO 6762-39 AVE,53.47586961,-113.4445511,0.0043055556,10d 06:00:00,20d 14:45:00,1,neighbourhood,10,B1,267.0_1,,0.0033991228,267.0,6.0
276.0_1_B1,,D,KINISKI GARDENS,403 KIRKPATRICK CRESENT,53.47925609,-113.4022577,0.0023611111,10d 06:00:00,20d 14:45:00,1,neighbourhood,10,B1,276.0_1,,0.0018640351,276.0,0.0
278.0_1_B1,,D,KINISKI GARDENS,43 AVE & 38 ST - KIRKPATRICK CRESENT,53.4801263,-113.3999983,0.0038888889,10d 06:00:00,20d 14:45:00,1,neighbourhood,10,B1,278.0_1,,0.0030701754,278.0,0.0
291.0_1_B1,,D,EKOTA,21 AVE & 73 ST,53.45275672,-113.4456286,0.0048611111,10d 06:00:00,20d 14:45:00,1,neighbourhood,10,B1,291.0_1,,0.0038377193,291.0,0.0
307.0_1_B1,,D,GREENVIEW,40 - 43 AVE & GREENOCH CRESENT,53.47807414,-113.4236698,0.0676388889,10d 06:00:00,20d 14:45:00,1,neighbourhood,10,B1,307.0_1,,0.0533991228,307.0,0.0
308.0_1_B1,,D,GREENVIEW,40 - 43 AVE & GRANLEA CRESENT (P.P.),53.47925098,-113.4295846,0.065,10d 06:00:00,20d 14:45:00,1,neighbourhood,10,B1,308.0_1,,0.0513157895,308.0,0.0
310.0_1_B1,,D,GREENVIEW,153 GRANLEA CRESENT,53.47935367,-113.4311516,0.0030555556,10d 06:00:00,20d 14:45:00,1,neighbourhood,10,B1,310.0_1,,0.0024122807,310.0,0.0
381.0_1_B1,,D,EKOTA,68 ST - 22 AVE,53.45182828,-113.4381028,0.0048611111,10d 06:00:00,20d 14:45:00,1,neighbourhood,10,B1,381.0_1,,0.0038377193,381.0,0.0
383.0_1_B1,,D,HILLVIEW,HILLVIEW CRESENT (52 ST & 34 B AVE),53.46695088,-113.4212724,0.015,10d 06:00:00,20d 14:45:00,1,neighbourhood,10,B1,383.0_1,,0.0118421053,383.0,5.0
402.0_1_B1,,D,KAMEYOSEK,EAST SIDE MILLWOODS RD & 34-28 AVE,53.46369927,-113.4501914,0.0211111111,10d 06:00:00,20d 14:45:00,1,roadway,10,B1,402.0_1,,0.0166666667,402.0,1.0
403.0_1_B1,,D,MICHAELS PARK,MILLBOURNE ROAD E-41A AVE,53.47911282,-113.4438854,0.0061111111,10d 06:00:00,20d 14:45:00,1,neighbourhood,10,B1,403.0_1,,0.0048245614,403.0,4.0
404.0_1_B1,,D,KINISKI GARDENS,44 ST-KULAWY GATE (39 AVE),53.47431735,-113.4071166,0.0040277778,10d 06:00:00,20d 14:45:00,1,neighbourhood,10,B1,404.0_1,,0.0031798246,404.0,4.0
405.0_1_B1,,D,KINISKI GARDENS,1244 KAASA ROAD EAST,53.47069387,-113.3979464,0.0026388889,10d 06:00:00,20d 14:45:00,1,neighbourhood,10,B1,405.0_1,,0.0020833333,405.0,5.0
406.0_1_B1,,D,MEYONOHK,CONNECTS 89 ST-BACK LANE-BTWN-24-25A A,53.45386309,-113.4620099,0.0080555556,10d 06:00:00,20d 14:45:00,1,neighbourhood,10,B1,406.0_1,,0.0063596491,406.0,6.0
407.0_1_B1,,D,MEYONOHK,83 ST-BACK LANE-BTWN-26-27 AVE,53.45671841,-113.4595737,0.0026388889,10d 06:00:00,20d 14:45:00,1,neighbourhood,10,B1,407.0_1,,0.0020833333,407.0,6.0
408.0_1_B1,,D,MEYONOHK,89 ST - LAKEWOOD RD. WEST & 26-27 AVE,53.45687343,-113.4632328,0.0094444444,10d 06:00:00,20d 14:45:00,1,neighbourhood,10,B1,408.0_1,,0.0074561404,408.0,4.0
410.0_1_B1,,D,LARKSPUR,30 ST - W/SIDE 42 AVE TO 40 AVE,53.47811545,-113.3875818,0.0013888889,10d 06:00:00,20d 14:45:00,1,neighbourhood,10,B1,410.0_1,,0.0010964912,410.0,4.0
468.0_1_B1,,D,CRAWFORD PLAINS,42 ST-12-10 AVE,53.43896847,-113.4071036,0.0909722222,10d 06:00:00,20d 14:45:00,1,neighbourhood,10,B1,468.0_1,,0.0718201754,468.0,6.0
469.0_1_B1,,D,LEE RIDGE,LEE RIDGE RD-E 71 ST,53.46767804,-113.4416367,0.0611111111,10d 06:00:00,20d 14:45:00,1,neighbourhood,10,B1,469.0_1,,0.048245614,469.0,0.0
470.0_1_B1,,D,BISSET,43 ST-25 AVE,53.45581327,-113.408386,0.0022222222,10d 06:00:00,20d 14:45:00,1,neighbourhood,10,B1,470.0_1,,0.001754386,470.0,0.0
484.0_1_B1,,D,MEYONOHK,W. OF 78 ST & S. OF LAKEWOOD RD. SOUTH,53.45472483,-113.4505677,0.0011111111,10d 06:00:00,20d 14:45:00,1,neighbourhood,10,B1,484.0_1,,0.000877193,484.0,6.0
534.0_1_B1,,D,SUMMERSIDE,SUMMERSIDE DRIVE: ELLERSLIE RD - 11 AVE,53.42428779,-113.4630607,0.0090277778,10d 06:00:00,20d 14:45:00,1,neighbourhood,10,B1,534.0_1,,0.007127193,534.0,5.0
538.0_1_B1,,D,MEYOKUMIN,20A AVE-55 ST,53.4516189,-113.4239362,0.0401388889,10d 06:00:00,20d 14:45:00,1,neighbourhood,10,B1,538.0_1,,0.0316885965,538.0,0.0
547.0_1_B1,,D,EKOTA,73 ST - 21 AVE,53.45093514,-113.4441409,0.0059722222,10d 06:00:00,20d 14:45:00,1,neighbourhood,10,B1,547.0_1,,0.0047149123,547.0,0.0
548.0_1_B1,,D,EKOTA,70 ST - 21 AVE,53.45122102,-113.4407574,0.0031944444,10d 06:00:00,20d 14:45:00,1,neighbourhood,10,B1,548.0_1,,0.0025219298,548.0,0.0
553.0_1_B1,,D,LARKSPUR,33 ST - 41A AVE,53.47821022,-113.3915995,0.0019444444,10d 06:00:00,20d 14:45:00,1,neighbourhood,10,B1,553.0_1,,0.0015350877,553.0,4.0
558.0_1_B1,,D,TIPASKAN,3148 - 79 ST,53.46270509,-113.453122,0.0023611111,10d 06:00:00,20d 14:45:00,1,neighbourhood,10,B1,558.0_1,,0.0018640351,558.0,6.0
560.0_1_B1,,D,KINISKI GARDENS,264 KIRKWOOD AVE,53.48370558,-113.3994332,0.0019444444,10d 06:00:00,20d 14:45:00,1,neighbourhood,10,B1,560.0_1,,0.0015350877,560.0,0.0
579.0_1_B1,,D,LEE RIDGE,EAST SIDE MILLWOODS RD & 36B AVE-34 AVE,53.46729849,-113.4503892,0.0505555556,10d 06:00:00,20d 14:45:00,1,roadway,10,B1,579.0_1,,0.0399122807,579.0,9.0
597.0_1_B1,,D,TWEDDLE PLACE,W/S 76 ST: 38 AVE - WHITEMUD DRIVE,53.48042908,-113.4525123,0.0586111111,15.0d 06:00:00,15.0d 14:45:00,1,roadway,1,B1,597.0_1,15.0,0.0462719298,597.0,8.0
598.0_1_B1,,D,ELLERSLIE,Between 132 & 136 Easton Road SW,53.42752392,-113.4687742,0.0625,10d 06:00:00,20d 14:45:00,1,neighbourhood,10,B1,598.0_1,,0.0493421053,598.0,4.0
609.0_1_B1,,D,ELLERSLIE,Ellerslie Road & Edwards Drive,53.42520833,-113.4553127,0.0030555556,10d 06:00:00,20d 14:45:00,1,neighbourhood,10,B1,609.0_1,,0.0024122807,609.0,6.0
614.0_1_B1,,D,LEE RIDGE,71 ST-LEE RIDGE RD,53.46648414,-113.4425609,0.0098611111,10d 06:00:00,20d 14:45:00,1,neighbourhood,10,B1,614.0_1,,0.0077850877,614.0,0.0
615.0_1_B1,,D,LEE RIDGE,BTWN-38 AVE-SCHOOL-ADJ CLINIC,53.47314712,-113.447766,0.0151388889,10d 06:00:00,20d 14:45:00,1,neighbourhood,10,B1,615.0_1,,0.0119517544,615.0,6.0
623.0_1_B1,,D,EKOTA,KNOTTWOOD RD. EAST -68 ST & N. OF 19 AVE,53.45082585,-113.4393637,0.0330555556,10d 06:00:00,20d 14:45:00,1,neighbourhood,10,B1,623.0_1,,0.0260964912,623.0,0.0
624.0_1_B1,,D,EKOTA,SOUTH 19 AVE-BTWN-68 ST-KW RD EAST,53.44871371,-113.4392548,0.0027777778,10d 06:00:00,20d 14:45:00,1,neighbourhood,10,B1,624.0_1,,0.0021929825,624.0,0.0
626.0_1_B1,,D,EKOTA,CONNECTING KW RD N-18 AVE-BTWN-73-75 S,53.4489733,-113.446011,0.0055555556,10d 06:00:00,20d 14:45:00,1,neighbourhood,10,B1,626.0_1,,0.0043859649,626.0,5.0
640.0_1_B1,,D,LARKSPUR,44B AVE-28-29 ST,53.48335537,-113.3849588,0.0044444444,10d 06:00:00,20d 14:45:00,1,neighbourhood,10,B1,640.0_1,,0.0035087719,640.0,3.0
642.0_1_B1,,D,LARKSPUR,39-41 AVE & 23 ST-TRANSALTA R.O.W.,53.47865242,-113.3791748,0.1122222222,13.0d 06:00:00,13.0d 14:45:00,1,neighbourhood,1,B1,642.0_1,13.0,0.0885964912,642.0,0.0
662.0_1_B1,,D,WILD ROSE,BESIDE 364 WILD ROSE WAY,53.47572009,-113.3709659,0.0016666667,10d 06:00:00,20d 14:45:00,1,neighbourhood,10,B1,662.0_1,,0.0013157895,662.0,5.0
666.0_1_B1,,D,WALKER,ROAD RIGHT OF WAY: S/S ELLERSLIE RD,53.424798362,-113.419698009,0.0420833333,10d 06:00:00,20d 14:45:00,1,roadway,10,B1,666.0_1,,0.0332236842,666.0,
693.0_1_B1,,D,MICHAELS PARK,74 ST-44 AVE,53.48356597,-113.4516076,0.0095833333,10d 06:00:00,20d 14:45:00,1,neighbourhood,10,B1,693.0_1,,0.0075657895,693.0,3.0
696.0_1_B1,,D,MEYONOHK,24 AVE-W 85 ST,53.45257951,-113.4610376,0.0008333333,10d 06:00:00,20d 14:45:00,1,neighbourhood,10,B1,696.0_1,,0.0006578947,696.0,4.0
724.0_1_B1,,D,MCINTYRE INDUSTRIAL,86 ST-BTWN WHITEMUD DRIVE-51 AVE,53.48643348,-113.4537909,0.0123611111,10d 06:00:00,20d 14:45:00,1,roadway,10,B1,724.0_1,,0.0097587719,724.0,1.0
773.0_1_B1,,D,GREENVIEW,38A AVE-W 51 ST,53.47087639,-113.4185957,0.0030555556,10d 06:00:00,20d 14:45:00,1,neighbourhood,10,B1,773.0_1,,0.0024122807,773.0,4.0
777.0_1_B1,,D,CRAWFORD PLAINS,Road Allowance,53.44096431,-113.3942473,0.0486111111,17.0d 06:00:00,17.0d 14:45:00,1,roadway,1,B1,777.0_1,17.0,0.038377193,777.0,2.0
781.0_1_B1,,D,HILLVIEW,53 ST - 35 AVE,53.46754635,-113.4223962,0.0018055556,10d 06:00:00,20d 14:45:00,1,neighbourhood,10,B1,781.0_1,,0.0014254386,781.0,5.0
786.0_1_B1,,D,WILD ROSE,35B Ave: 31 St - 29 St,53.4680613,-113.3865062,0.0070833333,10d 06:00:00,20d 14:45:00,1,neighbourhood,10,B1,786.0_1,,0.0055921053,786.0,5.0
787.0_1_B1,,D,SUMMERSIDE,1202 Summerside Drive,53.42230666,-113.4668491,0.0472222222,20.0d 06:00:00,20.0d 14:45:00,1,neighbourhood,1,B1,787.0_1,20.0,0.0372807018,787.0,6.0
789.0_1_B1,,D,TIPASKAN,NORTH SIDE 28 AVE & LAKEWOOD RD WEST -,53.45895751,-113.4568045,0.0777777778,15.0d 06:00:00,15.0d 14:45:00,1,roadway,1,B1,789.0_1,15.0,0.0614035088,789.0,2.0
793.0_1_B1,,D,CRAWFORD PLAINS,39 ST-N 12 AVE,53.44114538,-113.4013158,0.0011111111,10d 06:00:00,20d 14:45:00,1,neighbourhood,10,B1,793.0_1,,0.000877193,793.0,6.0
820.0_1_B1,,D,SATOO,78 ST-BTWN-21-22 AVE,53.45229309,-113.4495041,0.0077777778,10d 06:00:00,20d 14:45:00,1,neighbourhood,10,B1,820.0_1,,0.0061403509,820.0,5.0
859.0_1_B1,,D,STRATHCONA INDUSTRIAL PARK,39 AVE & 92-91 ST,53.47412343,-113.4682701,0.0044444444,10d 06:00:00,20d 14:45:00,1,roadway,10,B1,859.0_1,,0.0035087719,859.0,9.0
862.0_1_B1,,D,TWEDDLE PLACE,WEST SIDE MILLBOURNE RD BTWN ALLEY & 3,53.47579203,-113.4586733,0.0036111111,10d 06:00:00,20d 14:45:00,1,neighbourhood,10,B1,862.0_1,,0.0028508772,862.0,4.0
863.0_1_B1,,D,TWEDDLE PLACE,77 ST-BTWN-41-40 AVE,53.47758279,-113.4529992,0.0054166667,10d 06:00:00,20d 14:45:00,1,neighbourhood,10,B1,863.0_1,,0.0042763158,863.0,6.0
906.0_1_B1,,D,KINISKI GARDENS,NORTH SIDE 38 AVE-BTWN 38-41 ST,53.47279653,-113.3993744,0.0029166667,10d 06:00:00,20d 14:45:00,1,roadway,10,B1,906.0_1,,0.0023026316,906.0,1.0
910.0_1_B1,,D,MEYONOHK,WEST SIDE 85 ST BTWN 23 AVE & 24 AVE,53.45234693,-113.4600996,0.0034722222,10d 06:00:00,20d 14:45:00,1,neighbourhood,10,B1,910.0_1,,0.0027412281,910.0,0.0
953.0_1_B1,,D,MENISA,68 ST - 11 AVE,53.4400904,-113.4415886,0.0072222222,10d 06:00:00,20d 14:45:00,1,neighbourhood,10,B1,953.0_1,,0.0057017544,953.0,0.0
954.0_1_B1,,D,MENISA,70 ST - 12 AVE,53.44215484,-113.4430531,0.0026388889,10d 06:00:00,20d 14:45:00,1,neighbourhood,10,B1,954.0_1,,0.0020833333,954.0,3.0
969.0_1_B1,,D,GREENVIEW,140 GRANLEA CRESENT,53.48040848,-113.4302079,0.0020833333,10d 06:00:00,20d 14:45:00,1,neighbourhood,10,B1,969.0_1,,0.0016447368,969.0,6.0
975.0_1_B1,,D,MICHAELS PARK,SOUTH SIDE/WS MILBOURNE RD E & E OF 74,53.48161951,-113.4476131,0.1022222222,10d 06:00:00,20d 14:45:00,1,neighbourhood,10,B1,975.0_1,,0.0807017544,975.0,3.0
976.0_1_B1,,D,BISSET,SOUTH SIDE 23 AVE BTWN 38-34 ST,53.45366325,-113.3962258,0.0441666667,17.0d 06:00:00,17.0d 14:45:00,1,roadway,1,B1,976.0_1,17.0,0.0348684211,976.0,8.0
979.0_1_B1,,D,MEYONOHK,WEST SIDE MILLWOODS RD-BTWN-28-23 AVE,53.45526058,-113.448311,0.1763888889,16.0d 06:00:00,16.0d 14:45:00,1,roadway,1,B1,979.0_1,16.0,0.139254386,979.0,1.0
988.0_1_B1,,D,ELLERSLIE,8503 - 2 Ave SW,53.43205583,-113.4640388,0.0025,10d 06:00:00,20d 14:45:00,1,neighbourhood,10,B1,988.0_1,,0.0019736842,988.0,4.0
989.0_1_B1,,D,SUMMERSIDE,429 SPARLING CRESC - 554 STEWART CRESC,53.42308569,-113.4689343,0.0048611111,10d 06:00:00,20d 14:45:00,1,neighbourhood,10,B1,989.0_1,,0.0038377193,989.0,7.0
993.0_1_B1,,D,KINISKI GARDENS,519 KULAWY POINT (WEST OF KULAWY DR N,53.47394159,-113.4107927,0.0016666667,10d 06:00:00,20d 14:45:00,1,neighbourhood,10,B1,993.0_1,,0.0013157895,993.0,4.0
996.0_1_B1,,D,GREENVIEW,GREENOCH CRESCENT-W 50 ST-GOLF COURS,53.47794898,-113.4207306,0.0341666667,20.0d 06:00:00,20.0d 14:45:00,1,neighbourhood,1,B1,996.0_1,20.0,0.0269736842,996.0,
1001.0_1_B1,,D,JACKSON HEIGHTS,NORTH SIDE 44 AVE-BTWN 49 ST-JACKSON R,53.48206292,-113.4132991,0.0140277778,10d 06:00:00,20d 14:45:00,1,neighbourhood,10,B1,1001.0_1,,0.0110745614,1001.0,4.0
1035.0_1_B1,,D,MEYONOHK,BTWN LAKEWOOD RD S-23 AVE-W 83 ST,53.45299725,-113.4581005,0.0319444444,10d 06:00:00,20d 14:45:00,1,neighbourhood,10,B1,1035.0_1,,0.0252192982,1035.0,4.0
1048.0_1_B1,,D,CHARLESWORTH,CENTER MEIDAIN - WATT BLVD TO WATT COMMON,53.42474558,-113.4309533,0.0415277778,10d 06:00:00,20d 14:45:00,1,roadway,10,B1,1048.0_1,,0.0327850877,1048.0,
1050.0_1_B1,,D,CHARLESWORTH,SOUTH BUFFER - WATT BLVD TO WATT COMMON,53.42493252,-113.4311662,0.0830555556,10d 06:00:00,20d 14:45:00,1,roadway,10,B1,1050.0_1,,0.0655701754,1050.0,
1058.0_1_B1,,D,MENISA,77 ST - 11 AVE,53.44094322,-113.4526684,0.0022222222,10d 06:00:00,20d 14:45:00,1,neighbourhood,10,B1,1058.0_1,,0.001754386,1058.0,5.0
1068.0_1_B1,,D,JACKSON HEIGHTS,47 ST-BTWN 42-43 AVE,53.47893527,-113.4134385,0.0051388889,10d 06:00:00,20d 14:45:00,1,neighbourhood,10,B1,1068.0_1,,0.0040570175,1068.0,5.0
1070.0_1_B1,,D,JACKSON HEIGHTS,JENNER COVE-JENNINGS BAY,53.48682407,-113.4020903,0.0040277778,10d 06:00:00,20d 14:45:00,1,neighbourhood,10,B1,1070.0_1,,0.0031798246,1070.0,3.0
1091.0_1_B1,,D,JACKSON HEIGHTS,JAMHA RD - JAMES CRESCENT,53.48405855,-113.4134176,0.0119444444,10d 06:00:00,20d 14:45:00,1,neighbourhood,10,B1,1091.0_1,,0.0094298246,1091.0,5.0
1092.0_1_B1,,D,MICHAELS PARK,40 AVE-67 ST,53.47592234,-113.4407956,0.0038888889,10d 06:00:00,20d 14:45:00,1,neighbourhood,10,B1,1092.0_1,,0.0030701754,1092.0,6.0
1103.0_1_B1,,D,MINCHAU,35 AVE-48 ST,53.46609391,-113.4143055,0.1005555556,10d 06:00:00,20d 14:45:00,1,neighbourhood,10,B1,1103.0_1,,0.0793859649,1103.0,0.0
1104.0_1_B1,,D,MINCHAU,34A AVE-37 ST,53.46446839,-113.400625,0.0020833333,10d 06:00:00,20d 14:45:00,1,neighbourhood,10,B1,1104.0_1,,0.0016447368,1104.0,5.0
1110.0_1_B1,,D,SATOO,CONNECTS-KNOTTWOOD RD N-BACK LANE W,53.45038315,-113.4536069,0.0027777778,10d 06:00:00,20d 14:45:00,1,neighbourhood,10,B1,1110.0_1,,0.0021929825,1110.0,5.0
1113.0_1_B1,,D,PARSONS INDUSTRIAL,WS/C 91 ST BTWN 23 & 28 AVE,53.45538745,-113.467122,0.1598611111,10d 06:00:00,20d 14:45:00,1,roadway,10,B1,1113.0_1,,0.1262061404,1113.0,
1118.0_1_B1,,D,ELLERSLIE,Between 8225 & 8229 - 8 Ave SW,53.42524929,-113.4606603,0.0180555556,10d 06:00:00,20d 14:45:00,1,neighbourhood,10,B1,1118.0_1,,0.014254386,1118.0,6.0
1123.0_1_B1,,D,ELLERSLIE,202 Edwards Drive,53.42945449,-113.4605923,0.0030555556,10d 06:00:00,20d 14:45:00,1,neighbourhood,10,B1,1123.0_1,,0.0024122807,1123.0,6.0
1124.0_1_B1,,D,ELLERSLIE,Btwn 204-83 ST SW & 8232-2 AVE SW,53.43205228,-113.4609309,0.0030555556,10d 06:00:00,20d 14:45:00,1,neighbourhood,10,B1,1124.0_1,,0.0024122807,1124.0,6.0
1125.0_1_B1,,D,ELLERSLIE,btw 7904 2Ave & #205 79 St.,53.43206463,-113.4554252,0.0023611111,10d 06:00:00,20d 14:45:00,1,neighbourhood,10,B1,1125.0_1,,0.0018640351,1125.0,6.0
1132.0_1_B1,,D,BISSET,42 ST-32 AVE,53.46159102,-113.4018121,0.0006944444,10d 06:00:00,20d 14:45:00,1,neighbourhood,10,B1,1132.0_1,,0.0005482456,1132.0,0.0
1133.0_1_B1,,D,MINCHAU,45 ST & 37B - 38 AVE,53.46938536,-113.4107342,0.0008333333,10d 06:00:00,20d 14:45:00,1,neighbourhood,10,B1,1133.0_1,,0.0006578947,1133.0,6.0
1135.0_1_B1,,D,WILD ROSE,36A AVE EAST OF 30 ST,53.46996222,-113.3848451,0.1161111111,10d 06:00:00,20d 14:45:00,1,neighbourhood,10,B1,1135.0_1,,0.0916666667,1135.0,5.0
1136.0_1_B1,,D,WILD ROSE,BETWEEN 3655 & 3659 - 28 ST,53.47089793,-113.3820877,0.0025,10d 06:00:00,20d 14:45:00,1,neighbourhood,10,B1,1136.0_1,,0.0019736842,1136.0,4.0
1137.0_1_B1,,D,WILD ROSE,141 WARD CRES - PIPELINE - 2344-37B AVE,53.47367477,-113.3802369,0.0058333333,10d 06:00:00,20d 14:45:00,1,neighbourhood,10,B1,1137.0_1,,0.0046052632,1137.0,4.0
1141.0_1_B1,,D,TIPASKAN,89 ST - 32 AVE,53.4635544,-113.4629976,0.0041666667,10d 06:00:00,20d 14:45:00,1,neighbourhood,10,B1,1141.0_1,,0.0032894737,1141.0,4.0
1161.0_1_B1,,D,SUMMERSIDE,88 ST SW: SOUTH OF SUMMERSIDE DRIVE,53.42087888,-113.467405,0.0026388889,10d 06:00:00,20d 14:45:00,1,neighbourhood,10,B1,1161.0_1,,0.0020833333,1161.0,7.0
1167.0_1_B1,,D,TWEDDLE PLACE,ALONG MILLBOURNE RD W-BTWN-76-85 ST,53.48079517,-113.4552256,0.0934722222,10d 06:00:00,20d 14:45:00,1,neighbourhood,10,B1,1167.0_1,,0.0737938596,1167.0,6.0
1170.0_1_B1,,D,SAKAW,57 ST - 14 AVE,53.4430186,-113.4269189,0.0073611111,10d 06:00:00,20d 14:45:00,1,neighbourhood,10,B1,1170.0_1,,0.0058114035,1170.0,0.0
1177.0_1_B1,,D,WEINLOS,49 ST-S 27 AVE/24 AVE-49A ST,53.45756451,-113.4189917,0.0602777778,10d 06:00:00,20d 14:45:00,1,neighbourhood,10,B1,1177.0_1,,0.0475877193,1177.0,0.0
1180.0_1_B1,,D,TIPASKAN,79 ST - 30 AVE,53.46108167,-113.4553522,0.0048611111,10d 06:00:00,20d 14:45:00,1,neighbourhood,10,B1,1180.0_1,,0.0038377193,1180.0,6.0
1181.0_1_B1,,D,TIPASKAN,79 ST-S LAKEWOOD RD,53.46101619,-113.4516362,0.0018055556,10d 06:00:00,20d 14:45:00,1,neighbourhood,10,B1,1181.0_1,,0.0014254386,1181.0,0.0
1184.0_1_B1,,D,TIPASKAN,81 ST - 33 AVE,53.46414889,-113.4552433,0.01,10d 06:00:00,20d 14:45:00,1,neighbourhood,10,B1,1184.0_1,,0.0078947368,1184.0,6.0
1201.0_1_B1,,D,MENISA,68 - 72 ST & 10 AVE - KNOTTWOOD RD. EAST,53.44102796,-113.4436001,0.0876388889,10d 06:00:00,20d 14:45:00,1,neighbourhood,10,B1,1201.0_1,,0.0691885965,1201.0,0.0
1202.0_1_B1,,D,MENISA,BTWN-11-10 AVE-72 ST,53.43910077,-113.4446028,0.0086111111,10d 06:00:00,20d 14:45:00,1,neighbourhood,10,B1,1202.0_1,,0.0067982456,1202.0,5.0
1219.0_1_B1,,D,KINISKI GARDENS,44 AVE-37 ST,53.48227402,-113.4000263,0.0026388889,10d 06:00:00,20d 14:45:00,1,neighbourhood,10,B1,1219.0_1,,0.0020833333,1219.0,4.0
1232.0_1_B1,,D,JACKSON HEIGHTS,BTWN 767 JOHNS RD-KG PIPELINE,53.48114421,-113.4058149,0.0018055556,10d 06:00:00,20d 14:45:00,1,neighbourhood,10,B1,1232.0_1,,0.0014254386,1232.0,0.0
1272.0_1_B1,,D,POLLARD MEADOWS,45 St - 22 Ave,53.45466114,-113.4096457,0.0011111111,10d 06:00:00,20d 14:45:00,1,neighbourhood,10,B1,1272.0_1,,0.000877193,1272.0,5.0
1292.0_1_B1,,D,ELLERSLIE,Between 504 - 90 St SW & 8924 - 5 Ave SW,53.42915368,-113.4713192,0.0023611111,10d 06:00:00,20d 14:45:00,1,neighbourhood,10,B1,1292.0_1,,0.0018640351,1292.0,4.0
1308.0_1_B1,,D,LEE RIDGE,LEE RIDGE RD-N 36A AVE,53.47247757,-113.4411285,0.0443055556,10d 06:00:00,20d 14:45:00,1,neighbourhood,10,B1,1308.0_1,,0.0349780702,1308.0,6.0
1312.0_1_B1,,D,MEYOKUMIN,BTWN-19A-23 AVE-E 61 ST,53.45190384,-113.4304811,0.0463888889,10d 06:00:00,20d 14:45:00,1,neighbourhood,10,B1,1312.0_1,,0.036622807,1312.0,0.0
1313.0_1_B1,,D,LARKSPUR,37-38 AVE & 32-34 ST,53.47213596,-113.3919408,0.0505555556,20.0d 06:00:00,20.0d 14:45:00,1,neighbourhood,1,B1,1313.0_1,20.0,0.0399122807,1313.0,
1319.0_1_B1,,D,WILD ROSE,BTWN 3640 - 30 ST & 3647 - 31 ST,53.47005269,-113.3871047,0.0058333333,10d 06:00:00,20d 14:45:00,1,neighbourhood,10,B1,1319.0_1,,0.0046052632,1319.0,5.0
1320.0_1_B1,,D,WILD ROSE,BTWN 3656 - 31 ST & 3651 - 31A ST,53.47027557,-113.3884965,0.0058333333,10d 06:00:00,20d 14:45:00,1,neighbourhood,10,B1,1320.0_1,,0.0046052632,1320.0,0.0
1346.0_1_B1,,D,SILVER BERRY,BETWEEN 2406-33A ST & 3383-24 AVE,53.45432682,-113.3930957,0.0023611111,10d 06:00:00,20d 14:45:00,1,neighbourhood,10,B1,1346.0_1,,0.0018640351,1346.0,5.0
1361.0_1_B1,,D,LARKSPUR,31-33 ST-43-44 AVE,53.48157221,-113.3908289,0.1505555556,10d 06:00:00,20d 14:45:00,1,neighbourhood,10,B1,1361.0_1,,0.1188596491,1361.0,3.0
1362.0_1_B1,,D,LARKSPUR,31 ST-BTWN 38-39 AVE,53.47374505,-113.3884135,0.0054166667,10d 06:00:00,20d 14:45:00,1,neighbourhood,10,B1,1362.0_1,,0.0042763158,1362.0,5.0
1363.0_1_B1,,D,LARKSPUR,40 AVE-BTWN 31-30 ST,53.47552621,-113.3872123,0.0052777778,10d 06:00:00,20d 14:45:00,1,neighbourhood,10,B1,1363.0_1,,0.0041666667,1363.0,5.0
1422.0_1_B1,,D,MEYOKUMIN,BTWN-62-65 ST-17A-18 AVE,53.4479728,-113.4325536,0.0061111111,10d 06:00:00,20d 14:45:00,1,neighbourhood,10,B1,1422.0_1,,0.0048245614,1422.0,0.0
1423.0_1_B1,,D,MEYOKUMIN,CONNECTS 51-54 ST-BTWN-17A-18A AVE,53.44817357,-113.4233141,0.0055555556,10d 06:00:00,20d 14:45:00,1,neighbourhood,10,B1,1423.0_1,,0.0043859649,1423.0,0.0
1424.0_1_B1,,D,MEYOKUMIN,56 ST-N 20A AVE,53.45208637,-113.425887,0.0015277778,10d 06:00:00,20d 14:45:00,1,neighbourhood,10,B1,1424.0_1,,0.0012061404,1424.0,0.0
1435.0_1_B1,,D,SATOO,BTWN-KNOTTWOOD RD S-10 AVE-W OF 82 ST,53.44120747,-113.4595298,0.0283333333,10d 06:00:00,20d 14:45:00,1,neighbourhood,10,B1,1435.0_1,,0.0223684211,1435.0,0.0
1436.0_1_B1,,D,SATOO,CONNECTS 14A AVE-KNOTTWOOD RD S-82 ST,53.44298538,-113.4577692,0.0059722222,10d 06:00:00,20d 14:45:00,1,neighbourhood,10,B1,1436.0_1,,0.0047149123,1436.0,5.0
1438.0_1_B1,,D,POLLARD MEADOWS,48A ST-BTWN-17A-18 AVE,53.44805732,-113.4152553,0.0016666667,10d 06:00:00,20d 14:45:00,1,neighbourhood,10,B1,1438.0_1,,0.0013157895,1438.0,4.0
1447.0_1_B1,,D,TWEDDLE PLACE,NORTH SIDE MILLWOODS RD-BTWN-91 ST-38,53.47401729,-113.4594378,0.0205555556,10d 06:00:00,20d 14:45:00,1,roadway,10,B1,1447.0_1,,0.0162280702,1447.0,1.0
1449.0_1_B1,,D,MINCHAU,38A AVE-48 ST,53.47033728,-113.4148232,0.0018055556,10d 06:00:00,20d 14:45:00,1,neighbourhood,10,B1,1449.0_1,,0.0014254386,1449.0,6.0
1450.0_1_B1,,D,RICHFIELD,BTWN-85-91 ST,53.46912852,-113.4624634,0.0533333333,20.0d 06:00:00,20.0d 14:45:00,1,neighbourhood,1,B1,1450.0_1,20.0,0.0421052632,1450.0,
1451.0_1_B1,,D,LEE RIDGE,MILLBOURNE RD E-LEE RIDGE RD-N 36A AVE,53.47182007,-113.4430238,0.0702777778,10d 06:00:00,20d 14:45:00,1,neighbourhood,10,B1,1451.0_1,,0.0554824561,1451.0,6.0
1452.0_1_B1,,D,TIPASKAN,87 -89 ST & 33 AVE - LAKEWOOD RD. NORTH,53.4631616,-113.4618949,0.0169444444,10d 06:00:00,20d 14:45:00,1,neighbourhood,10,B1,1452.0_1,,0.013377193,1452.0,4.0
1453.0_1_B1,,D,TIPASKAN,89 ST BTWN 29 & 30 AVE,53.46072409,-113.462334,0.0083333333,10d 06:00:00,20d 14:45:00,1,neighbourhood,10,B1,1453.0_1,,0.0065789474,1453.0,4.0
1457.0_1_B1,,D,ELLERSLIE,89 ST SW & 8 AVE SW,53.4255926,-113.4703023,0.0138888889,10d 06:00:00,20d 14:45:00,1,neighbourhood,10,B1,1457.0_1,,0.0109649123,1457.0,4.0
1461.0_1_B1,,D,WILD ROSE,E/S 23 St South of 37A Ave,53.47250303,-113.3764284,0.0038888889,10d 06:00:00,20d 14:45:00,1,neighbourhood,10,B1,1461.0_1,,0.0030701754,1461.0,3.0
1479.0_1_B1,,D,SAKAW,52 ST-11 AVE,53.43971695,-113.4198469,0.00125,10d 06:00:00,20d 14:45:00,1,neighbourhood,10,B1,1479.0_1,,0.0009868421,1479.0,0.0
1488.0_1_B1,,D,MINCHAU,45 ST - 35A AVE,53.46576161,-113.4081712,0.0008333333,10d 06:00:00,20d 14:45:00,1,neighbourhood,10,B1,1488.0_1,,0.0006578947,1488.0,6.0
1497.0_1_B1,,D,TWEDDLE PLACE,76 St - Millbourne Road West,53.47941443,-113.4545691,0.0591666667,10d 06:00:00,20d 14:45:00,1,neighbourhood,10,B1,1497.0_1,,0.0467105263,1497.0,6.0
1511.0_1_B1,,D,SILVER BERRY,BTWN 3203 & 3204 28 AVE,53.45781988,-113.3866463,0.0009722222,10d 06:00:00,20d 14:45:00,1,neighbourhood,10,B1,1511.0_1,,0.0007675439,1511.0,0.0
1548.0_1_B1,,D,SAKAW,58 ST - 11 AVE,53.43920366,-113.4276025,0.00125,10d 06:00:00,20d 14:45:00,1,neighbourhood,10,B1,1548.0_1,,0.0009868421,1548.0,6.0
1568.0_1_B1,,D,SAKAW,56-58 ST & 10-11A AVE,53.43892909,-113.426705,0.0570833333,10d 06:00:00,20d 14:45:00,1,neighbourhood,10,B1,1568.0_1,,0.0450657895,1568.0,6.0
1599.0_1_B1,,D,SAKAW,E/S 58 ST: BACKLANE-11A AVE & SS 11A AVE &,53.47084369,-113.3852557,0.0061111111,10d 06:00:00,20d 14:45:00,1,neighbourhood,10,B1,1599.0_1,,0.0048245614,1599.0,5.0
1600.0_1_B1,,D,SILVER BERRY,SILVER BERRY RD: 34 ST - 32 AVE,53.44018994,-113.4292992,0.0194444444,10d 06:00:00,20d 14:45:00,1,neighbourhood,10,B1,1600.0_1,,0.0153508772,1600.0,0.0
1608.0_1_B1,,D,SOUTH EDMONTON COMMON,SOUTH OF 19 AVE EAST OF 102 ST,53.44420822,-113.4874427,0.0016666667,10d 06:00:00,20d 14:45:00,1,neighbourhood,10,B1,1608.0_1,,0.0013157895,1608.0,4.0
1611.0_1_B1,,D,KINISKI GARDENS,4003 - 38A AVE,53.47400654,-113.4005423,0.0026388889,10d 06:00:00,20d 14:45:00,1,neighbourhood,10,B1,1611.0_1,,0.0020833333,1611.0,3.0
1612.0_1_B1,,D,MICHAELS PARK,MILLBOURNE ROAD E-70 ST,53.4792581,-113.4489091,0.1725,10.0d 06:00:00,10.0d 14:45:00,1,neighbourhood,1,B1,1612.0_1,10.0,0.1361842105,1612.0,0.0
1623.0_1_B1,,D,BISSET,NORTH SIDE 23 AVE-BTWN MILLWOODS RD E- 38 ST,53.45485526,-113.4033495,0.0454166667,16.0d 06:00:00,16.0d 14:45:00,1,roadway,1,B1,1623.0_1,16.0,0.0358552632,1623.0,2.0
1624.0_1_B1,,D,SAKAW,56 ST - 11 AVE,53.43937612,-113.4244306,0.0073611111,10d 06:00:00,20d 14:45:00,1,neighbourhood,10,B1,1624.0_1,,0.0058114035,1624.0,0.0
1625.0_1_B1,,D,SAKAW,10 AVE-W OF 63 ST,53.438656,-113.4351926,0.0038888889,10d 06:00:00,20d 14:45:00,1,neighbourhood,10,B1,1625.0_1,,0.0030701754,1625.0,6.0
1626.0_1_B1,,D,SAKAW,11 AVE-63 ST,53.44041168,-113.4334164,0.0020833333,10d 06:00:00,20d 14:45:00,1,neighbourhood,10,B1,1626.0_1,,0.0016447368,1626.0,6.0
1628.0_1_B1,,D,SATOO,19 AVE-KNOTTWOOD RD W,53.44864911,-113.4610691,0.00375,10d 06:00:00,20d 14:45:00,1,neighbourhood,10,B1,1628.0_1,,0.0029605263,1628.0,5.0
1642.0_1_B1,,D,TIPASKAN,86 ST - 32 AVE,53.46375409,-113.4614022,0.00375,10d 06:00:00,20d 14:45:00,1,neighbourhood,10,B1,1642.0_1,,0.0029605263,1642.0,4.0
1643.0_1_B1,,D,TIPASKAN,85 ST - 33 AVE,53.46444895,-113.4589404,0.0027777778,10d 06:00:00,20d 14:45:00,1,neighbourhood,10,B1,1643.0_1,,0.0021929825,1643.0,6.0
1645.0_1_B1,,D,MEYONOHK,78 ST - 24 AVE,53.45376048,-113.4487908,0.0043055556,10d 06:00:00,20d 14:45:00,1,neighbourhood,10,B1,1645.0_1,,0.0033991228,1645.0,0.0
1646.0_1_B1,,D,EKOTA,WEST 69 ST-CONNECTING-21-23 AVE,53.45326491,-113.4399242,0.0036111111,10d 06:00:00,20d 14:45:00,1,neighbourhood,10,B1,1646.0_1,,0.0028508772,1646.0,0.0
1712.0_1_B1,,D,KINISKI GARDENS,BESIDE 4132 - 39 AVE,53.47422393,-113.4027813,0.0027777778,10d 06:00:00,20d 14:45:00,1,neighbourhood,10,B1,1712.0_1,,0.0021929825,1712.0,3.0
1713.0_1_B1,,D,KINISKI GARDENS,BESIDE 3963 - 42 ST,53.47559528,-113.4035751,0.0030555556,10d 06:00:00,20d 14:45:00,1,neighbourhood,10,B1,1713.0_1,,0.0024122807,1713.0,3.0
1714.0_1_B1,,D,TIPASKAN,80-81 ST & LAKEWOOD RD. NORTH - 34 AVE,53.4638973,-113.4544161,0.0411111111,10d 06:00:00,20d 14:45:00,1,neighbourhood,10,B1,1714.0_1,,0.0324561404,1714.0,6.0
1722.0_1_B1,,D,ELLERSLIE,BETWEEN 720 & 724 - 87 ST SW,53.4255842,-113.46646,0.0013888889,10d 06:00:00,20d 14:45:00,1,neighbourhood,10,B1,1722.0_1,,0.0010964912,1722.0,6.0
1749.0_1_B1,,D,KINISKI GARDENS,BESIDE 159 KULAWY DRIVE NORTH,53.47530693,-113.4072125,0.0027777778,10d 06:00:00,20d 14:45:00,1,neighbourhood,10,B1,1749.0_1,,0.0021929825,1749.0,3.0
1752.0_1_B1,,D,RICHFIELD,BTWN-34-36 AVE-BTWN-79-81 ST,53.46680909,-113.4546789,0.1186111111,10d 06:00:00,20d 14:45:00,1,neighbourhood,10,B1,1752.0_1,,0.0936403509,1752.0,4.0
1759.0_1_B1,,D,TWEDDLE PLACE,NORTH 44 AVE-E 83 ST,53.48332882,-113.4577198,0.0861111111,10d 06:00:00,20d 14:45:00,1,neighbourhood,10,B1,1759.0_1,,0.0679824561,1759.0,6.0
1760.0_1_B1,,D,SILVER BERRY,23 St & 29 Ave,53.45924056,-113.3744127,0.0019444444,10d 06:00:00,20d 14:45:00,1,neighbourhood,10,B1,1760.0_1,,0.0015350877,1760.0,5.0
1771.0_1_B1,,D,RICHFIELD,NORTH SIDE 34 AVE-91 ST-MILLWOODS RD W,53.46537684,-113.4587719,0.1326388889,10d 06:00:00,20d 14:45:00,1,roadway,10,B1,1771.0_1,,0.1047149123,1771.0,9.0
1778.0_1_B1,,D,SAKAW,11 AVE-58 ST,53.44264997,-113.4290041,0.1086111111,20.0d 06:00:00,20.0d 14:45:00,1,neighbourhood,1,B1,1778.0_1,20.0,0.085745614,1778.0,6.0
1779.0_1_B1,,D,JACKSON HEIGHTS,WEST SIDE FROM 38 AVE-40 AVE,53.47325833,-113.4122667,0.0830555556,10d 06:00:00,20d 14:45:00,1,neighbourhood,10,B1,1779.0_1,,0.0655701754,1779.0,0.0
1782.0_1_B1,,D,SATOO,BTWN-S OF 10 AVE-KNOTTWOOD RD S-87-88 S,53.44243432,-113.4635386,0.1186111111,10d 06:00:00,20d 14:45:00,1,neighbourhood,10,B1,1782.0_1,,0.0936403509,1782.0,5.0
1784.0_1_B1,,D,GREENVIEW,238 GREENOCH CRESENT (P.P.),53.47985752,-113.4234038,0.0040277778,10d 06:00:00,20d 14:45:00,1,neighbourhood,10,B1,1784.0_1,,0.0031798246,1784.0,0.0
1787.0_1_B1,,D,JACKSON HEIGHTS,SOUTH SIDE 42 AVE-BTWN WALKWAY-48 ST,53.4776149,-113.414709,0.02125,10d 06:00:00,20d 14:45:00,1,neighbourhood,10,B1,1787.0_1,,0.0167763158,1787.0,5.0
1792.0_1_B1,,D,KINISKI GARDENS,NORTH SIDE/C OF 38 AVE-BTWN 38 ST-WW AT,53.47299555,-113.3954121,0.0186111111,10d 06:00:00,20d 14:45:00,1,roadway,10,B1,1792.0_1,,0.0146929825,1792.0,
1797.0_1_B1,,D,MENISA,ADJ TO N&E AREAS OF MENISA SCHOOL,53.44398441,-113.4470709,0.0551388889,10d 06:00:00,20d 14:45:00,1,neighbourhood,10,B1,1797.0_1,,0.0435307018,1797.0,0.0
1810.0_1_B1,,D,JACKSON HEIGHTS,49 ST- 44 AVE,53.48176008,-113.4158383,0.0059722222,10d 06:00:00,20d 14:45:00,1,neighbourhood,10,B1,1810.0_1,,0.0047149123,1810.0,5.0
1814.0_1_B1,,D,LARKSPUR,43A AVE - WHITEMUD DRIVE WEST OF 23 ST,53.48249405,-113.3806965,0.0738888889,20.0d 06:00:00,20.0d 14:45:00,1,neighbourhood,1,B1,1814.0_1,20.0,0.0583333333,1814.0,
1823.0_1_B1,,D,EKOTA,Mill Woods Rd: 23 Ave - 21 Ave,53.45268009,-113.4471929,0.0666666667,10d 06:00:00,20d 14:45:00,1,neighbourhood,10,B1,1823.0_1,,0.0526315789,1823.0,6.0
1827.0_1_B1,,D,MINCHAU,34A AVE-35 ST,53.4638602,-113.3948508,0.0009722222,10d 06:00:00,20d 14:45:00,1,neighbourhood,10,B1,1827.0_1,,0.0007675439,1827.0,4.0
1828.0_1_B1,,D,MINCHAU,42 ST - 34A AVE,53.46463922,-113.4063224,0.0016666667,10d 06:00:00,20d 14:45:00,1,neighbourhood,10,B1,1828.0_1,,0.0013157895,1828.0,6.0
1837.0_1_B1,,D,SATOO,SOUTH SIDE&C 23 AVE-BTWN 91-85 ST,53.45169814,-113.4632398,0.00875,16.0d 06:00:00,16.0d 14:45:00,1,roadway,1,B1,1837.0_1,16.0,0.0069078947,1837.0,2.0
1841.0_1_B1,,D,TWEDDLE PLACE,83 ST & 44 AVE,53.48192802,-113.4568471,0.0555555556,10d 06:00:00,20d 14:45:00,1,neighbourhood,10,B1,1841.0_1,,0.0438596491,1841.0,6.0
1842.0_1_B1,,D,MENISA,BTWN-MW RD-KW RD-WS SCHOOL BTWN 75-7,53.44429154,-113.4504405,0.035,10d 06:00:00,20d 14:45:00,1,neighbourhood,10,B1,1842.0_1,,0.0276315789,1842.0,0.0
1847.0_1_B1,,D,KINISKI GARDENS,BETWEEN 3503 & 3508 - 38A AVE,53.47363882,-113.394273,0.0034722222,10d 06:00:00,20d 14:45:00,1,neighbourhood,10,B1,1847.0_1,,0.0027412281,1847.0,3.0
1849.0_1_B1,,D,WILD ROSE,31A ST SOUTH OF 34A AVE,53.46649685,-113.3854278,0.1805555556,10d 06:00:00,20d 14:45:00,1,neighbourhood,10,B1,1849.0_1,,0.1425438596,1849.0,5.0
1850.0_1_B1,,D,WILD ROSE,EAST SIDE 34 ST-BTWN LAKE-S ENTRANCE R,53.46936302,-113.3935295,0.0095833333,10d 06:00:00,20d 14:45:00,1,roadway,10,B1,1850.0_1,,0.0075657895,1850.0,2.0
1863.0_1_B1,,D,SATOO,KNOTTWOOD RD W-91 ST-BTWN-18-19 AVE,53.44800717,-113.4642232,0.0308333333,10d 06:00:00,20d 14:45:00,1,neighbourhood,10,B1,1863.0_1,,0.0243421053,1863.0,0.0
1889.0_1_B1,,D,TIPASKAN,WS/C 91 ST BTWN 28 & 34 AVE,53.46193542,-113.4670981,0.0623611111,15.0d 06:00:00,15.0d 14:45:00,1,roadway,1,B1,1889.0_1,15.0,0.0492324561,1889.0,1.0
1892.0_1_B1,,D,MAPLE RIDGE INDUSTRIAL,WHITEMUD DRIVE : ROW TO CITY LIMITS,53.483201924,-113.357345335,0.0890277778,10d 06:00:00,20d 14:45:00,1,roadway,10,B1,1892.0_1,,0.0702850877,1892.0,8.0
1895.0_1_B1,,D,WEINLOS,BTWN SCHOOL-30 AVE-46 ST,53.46100863,-113.4119567,0.0015277778,10d 06:00:00,20d 14:45:00,1,neighbourhood,10,B1,1895.0_1,,0.0012061404,1895.0,0.0
1896.0_1_B1,,D,MINCHAU,N/S 34 AVE: 34 ST - MILLWOODS RD E,53.46389669,-113.4003169,0.0829166667,10d 06:00:00,20d 14:45:00,1,roadway,10,B1,1896.0_1,,0.0654605263,1896.0,
1908.0_1_B1,,D,LARKSPUR,BESIDE 2808 - 40B AVE,53.47680556,-113.3820092,0.0018055556,10d 06:00:00,20d 14:45:00,1,neighbourhood,10,B1,1908.0_1,,0.0014254386,1908.0,4.0
1910.0_1_B1,,D,MEYONOHK,BTWN LAKEWOOD RD S-28 AVE-83 ST,53.45633745,-113.4572744,0.0945833333,10d 06:00:00,20d 14:45:00,1,neighbourhood,10,B1,1910.0_1,,0.0746710526,1910.0,6.0
1915.0_1_B1,,D,EKOTA,CONNECTING MILLWOODS RD W-ST CLEMENT,53.44790167,-113.4503171,0.0054166667,10d 06:00:00,20d 14:45:00,1,neighbourhood,10,B1,1915.0_1,,0.0042763158,1915.0,0.0
1922.0_1_B1,,D,DALY GROVE,42 ST-18 AVE,53.44940491,-113.4065613,0.0031944444,10d 06:00:00,20d 14:45:00,1,neighbourhood,10,B1,1922.0_1,,0.0025219298,1922.0,0.0
1944.0_1_B1,,D,KINISKI GARDENS,E/S & C 34 ST: WHITEMUD DR - 38 AVE,53.48098194,-113.393479,0.0854166667,10d 06:00:00,20d 14:45:00,1,roadway,10,B1,1944.0_1,,0.0674342105,1944.0,
1965.0_1_B1,,D,KAMEYOSEK,BTWN 34 AVE-SCHOOL-BTWN-73-74 ST,53.4639958,-113.4461327,0.0609722222,10d 06:00:00,20d 14:45:00,1,neighbourhood,10,B1,1965.0_1,,0.0481359649,1965.0,0.0
1967.0_1_B1,,D,CRAWFORD PLAINS,SOUTH SIDE MILLWOODS RD S-BTWN 50 ST-C,53.44403276,-113.4110643,0.1320833333,10d 06:00:00,20d 14:45:00,1,roadway,10,B1,1967.0_1,,0.1042763158,1967.0,
1980.0_1_B1,,D,DALY GROVE,WEST SIDE 34 ST 18-23 AVE & WEST SIDE 34 ST 16A - 18 AVE,53.44893668,-113.3941282,0.1277777778,17.0d 06:00:00,17.0d 14:45:00,1,roadway,1,B1,1980.0_1,17.0,0.100877193,1980.0,1.0
1989.0_1_B1,,D,SILVER BERRY,23 St & 27 Ave,53.45667036,-113.3744248,0.0015277778,10d 06:00:00,20d 14:45:00,1,neighbourhood,10,B1,1989.0_1,,0.0012061404,1989.0,5.0
2005.0_1_B1,,D,EKOTA,WEST SIDE EKOTA SCHOOL,53.44873045,-113.443077,0.0783333333,10d 06:00:00,20d 14:45:00,1,neighbourhood,10,B1,2005.0_1,,0.0618421053,2005.0,5.0
2006.0_1_B1,,D,DALY GROVE,NORTH OF 20 AVE-BTWN 41 ST-MILLWOODS R,53.45345882,-113.407104,0.1041666667,10d 06:00:00,20d 14:45:00,1,neighbourhood,10,B1,2006.0_1,,0.0822368421,2006.0,6.0
2017.0_1_B1,,D,WILD ROSE,25 ST & 35 AVE,53.4686911,-113.3804738,0.0040277778,10d 06:00:00,20d 14:45:00,1,neighbourhood,10,B1,2017.0_1,,0.0031798246,2017.0,4.0
2045.0_1_B1,,D,ELLERSLIE,5 Ave SW - 77 St,53.4288845,-113.4530593,0.0079166667,10d 06:00:00,20d 14:45:00,1,neighbourhood,10,B1,2045.0_1,,0.00625,2045.0,5.0
2047.0_1_B1,,D,EKOTA,EAST 72 ST-CONNECTING-21-23 AVE,53.4532225,-113.442092,0.0015277778,10d 06:00:00,20d 14:45:00,1,neighbourhood,10,B1,2047.0_1,,0.0012061404,2047.0,6.0
2048.0_1_B1,,D,SATOO,CONNECTS-22-23 AVE-W OF 79 ST,53.45217177,-113.4535202,0.0027777778,10d 06:00:00,20d 14:45:00,1,neighbourhood,10,B1,2048.0_1,,0.0021929825,2048.0,5.0
2063.0_1_B1,,D,LARKSPUR,BESIDE 4134 - 29 ST,53.47858123,-113.3847973,0.0018055556,10d 06:00:00,20d 14:45:00,1,neighbourhood,10,B1,2063.0_1,,0.0014254386,2063.0,4.0
2066.0_1_B1,,D,ELLERSLIE,77 St - 7A Ave SW,53.4276126,-113.4528478,0.0708333333,10d 06:00:00,20d 14:45:00,1,neighbourhood,10,B1,2066.0_1,,0.0559210526,2066.0,6.0
2067.0_1_B1,,D,ELLERSLIE,77 St: 7A Ave SW - 8 Ave SW,53.42676972,-113.4527792,0.0152777778,10d 06:00:00,20d 14:45:00,1,neighbourhood,10,B1,2067.0_1,,0.0120614035,2067.0,6.0
2068.0_1_B1,,D,ELLERSLIE,848 and 843 - 77 St,53.42624455,-113.4524301,0.0016666667,10d 06:00:00,20d 14:45:00,1,neighbourhood,10,B1,2068.0_1,,0.0013157895,2068.0,6.0
2069.0_1_B1,,D,ELLERSLIE,803 and 811 - 77 St,53.42523781,-113.452792,0.0016666667,10d 06:00:00,20d 14:45:00,1,neighbourhood,10,B1,2069.0_1,,0.0013157895,2069.0,5.0
2080.0_1_B1,,D,MICHAELS PARK,EAST SIDE 76 ST-BTWN-38 AVE-WHITEMUD DR,53.48052107,-113.4521361,0.0569444444,10d 06:00:00,20d 14:45:00,1,roadway,10,B1,2080.0_1,,0.0449561404,2080.0,1.0
2103.0_1_B1,,D,SUMMERSIDE,Btwn 1328 & 1336 - 80 St SW,53.42111137,-113.4573177,0.0020833333,10d 06:00:00,20d 14:45:00,1,neighbourhood,10,B1,2103.0_1,,0.0016447368,2103.0,5.0
2141.0_1_B1,,D,LEE RIDGE,CONNECTS SCHOOL-MILLBOURNE RD E-73 ST,53.46945111,-113.4449974,0.0286111111,10d 06:00:00,20d 14:45:00,1,neighbourhood,10,B1,2141.0_1,,0.0225877193,2141.0,0.0
2142.0_1_B1,,D,LEE RIDGE,MILLWOODS RD-SS MILLBOURNE MALL,53.47106546,-113.450702,0.0151388889,10d 06:00:00,20d 14:45:00,1,neighbourhood,10,B1,2142.0_1,,0.0119517544,2142.0,6.0
2151.0_1_B1,,D,ELLERSLIE,BETWEEN 724 - 90 ST SW & 8935 - 8 AVE SW,53.42538246,-113.4729777,0.0016666667,10d 06:00:00,20d 14:45:00,1,neighbourhood,10,B1,2151.0_1,,0.0013157895,2151.0,4.0
2156.0_1_B1,,D,MENISA,KNOTTWOOD ROAD S-75 ST,53.44317506,-113.448125,0.0916666667,13.0d 06:00:00,13.0d 14:45:00,1,neighbourhood,1,B1,2156.0_1,13.0,0.0723684211,2156.0,3.0
2162.0_1_B1,,D,MAPLE,WHITEMUD DRIVE : CENTER MEDIAN : CREEK - SIGN BED,53.482924038,-113.354540229,0.0458333333,10d 06:00:00,20d 14:45:00,1,roadway,10,B1,2162.0_1,,0.0361842105,2162.0,8.0
2172.0_1_B1,,D,WILD ROSE,BETWEEN 3503 & 3504 - 21 ST,53.46846147,-113.3747242,0.0016666667,10d 06:00:00,20d 14:45:00,1,roadway,10,B1,2172.0_1,,0.0013157895,2172.0,8.0
2202.0_1_B1,,D,MINCHAU,38A AVE-45 ST,53.47013455,-113.4097413,0.00125,10d 06:00:00,20d 14:45:00,1,neighbourhood,10,B1,2202.0_1,,0.0009868421,2202.0,6.0
2203.0_1_B1,,D,SATOO,BTWN-23 AVE-SATOO SCH PLRW-BTWN 82-85,53.44946567,-113.4578253,0.0711111111,10d 06:00:00,20d 14:45:00,1,neighbourhood,10,B1,2203.0_1,,0.0561403509,2203.0,5.0
2224.0_1_B1,,D,JACKSON HEIGHTS,42 AVE & 47 ST-PIPELINE,53.47705467,-113.4133661,0.0145833333,10d 06:00:00,20d 14:45:00,1,neighbourhood,10,B1,2224.0_1,,0.0115131579,2224.0,3.0
2233.0_1_B1,,D,LEE RIDGE,SOUTH SIDE/C 34 AVE BTWN MILLWOODS RD & 66 ST,53.46495912,-113.4432916,0.1213888889,16.0d 06:00:00,16.0d 14:45:00,1,roadway,1,B1,2233.0_1,16.0,0.0958333333,2233.0,1.0
2244.0_1_B1,,D,WEINLOS,NORTH OF 28 AVE-BTWN 48 ST-MILLWOODS R,53.45954006,-113.4120146,0.0943055556,10d 06:00:00,20d 14:45:00,1,neighbourhood,10,B1,2244.0_1,,0.0744517544,2244.0,0.0
2250.0_1_B1,,D,HILLVIEW,54-58 ST & 34 AVE-38 AVE,53.46914599,-113.4233464,0.2656944444,14.0d 06:00:00,14.0d 14:45:00,1,neighbourhood,1,B1,2250.0_1,14.0,0.2097587719,2250.0,0.0
2255.0_1_B1,,D,MILL WOODS TOWN CENTRE,SOUTH SIDE/C 23 AVE-BTWN 66-50 ST,53.4537107,-113.4285839,0.0730555556,16.0d 06:00:00,16.0d 14:45:00,1,roadway,1,B1,2255.0_1,16.0,0.0576754386,2255.0,2.0
2276.0_1_B1,,D,MAPLE,WHITEMUD DRIVE : ROW - CITY LIMITS,53.482314823,-113.361646382,0.1198611111,10d 06:00:00,20d 14:45:00,1,roadway,10,B1,2276.0_1,,0.094627193,2276.0,8.0
2288.0_1_B1,,D,MENISA,75-77 ST & KNOTTWOOD RD. SOUTH,53.44164266,-113.4515174,0.0101388889,10d 06:00:00,20d 14:45:00,1,neighbourhood,10,B1,2288.0_1,,0.008004386,2288.0,5.0
2306.0_1_B1,,D,SUMMERSIDE,69 ST - 13 AVE SW,53.42169819,-113.4460063,0.0018055556,10d 06:00:00,20d 14:45:00,1,neighbourhood,10,B1,2306.0_1,,0.0014254386,2306.0,6.0
2307.0_1_B1,,D,MEYONOHK,89 ST & 27-28 AVE,53.45833684,-113.4646859,0.0025,10d 06:00:00,20d 14:45:00,1,neighbourhood,10,B1,2307.0_1,,0.0019736842,2307.0,4.0
2331.0_1_B1,,D,KAMEYOSEK,67 ST - 33 AVE,53.46483496,-113.4367117,0.0020833333,10d 06:00:00,20d 14:45:00,1,neighbourhood,10,B1,2331.0_1,,0.0016447368,2331.0,0.0
2335.0_1_B1,,D,LEE RIDGE,CONNECTING SCHOOL-MILLBOURNE RD E,53.46901514,-113.4474729,0.0126388889,10d 06:00:00,20d 14:45:00,1,neighbourhood,10,B1,2335.0_1,,0.0099780702,2335.0,0.0
2339.0_1_B1,,D,POLLARD MEADOWS,43 ST BTWN MILLWOODS RD & 17 AVE,53.44391005,-113.4070047,0.1147222222,10d 06:00:00,20d 14:45:00,1,neighbourhood,10,B1,2339.0_1,,0.0905701754,2339.0,6.0
2356.0_1_B1,,D,MICHAELS PARK,CONNECTS 38 AVE-MILLBOURNE RD E-PIPELI,53.47557117,-113.4483935,0.0630555556,10d 06:00:00,20d 14:45:00,1,neighbourhood,10,B1,2356.0_1,,0.0497807018,2356.0,5.0
2357.0_1_B1,,D,MICHAELS PARK,EAST OF 76 ST BTWN PIPELINE & 40 AVE,53.47711464,-113.4500661,0.0026388889,10d 06:00:00,20d 14:45:00,1,neighbourhood,10,B1,2357.0_1,,0.0020833333,2357.0,6.0
2358.0_1_B1,,D,MICHAELS PARK,BTWN 72 ST/MILBOURNE RD E & PIPELINE,53.47793197,-113.4456944,0.0243055556,10d 06:00:00,20d 14:45:00,1,neighbourhood,10,B1,2358.0_1,,0.0191885965,2358.0,4.0
2374.0_1_B1,,D,EKOTA,BTWN 22-23 AVE-67-69 ST,53.45322074,-113.4373284,0.0030555556,10d 06:00:00,20d 14:45:00,1,neighbourhood,10,B1,2374.0_1,,0.0024122807,2374.0,0.0
2448.0_1_B1,,D,EKOTA,KNOTTWOOD RD E-19 AVE,53.44899765,-113.441916,0.1788888889,13.0d 06:00:00,13.0d 14:45:00,1,neighbourhood,1,B1,2448.0_1,13.0,0.1412280702,2448.0,3.0
2449.0_1_B1,,D,JACKSON HEIGHTS,47 ST-BTWN 44 AVE-43A AVE,53.48163656,-113.414401,0.0093055556,10d 06:00:00,20d 14:45:00,1,neighbourhood,10,B1,2449.0_1,,0.0073464912,2449.0,5.0
2450.0_1_B1,,D,JACKSON HEIGHTS,JORDAN CRESCENT,53.4822858,-113.4079003,0.0016666667,10d 06:00:00,20d 14:45:00,1,neighbourhood,10,B1,2450.0_1,,0.0013157895,2450.0,3.0
2451.0_1_B1,,D,JACKSON HEIGHTS,JACKSON RD - JEFFERY'S CRESCENT,53.48366475,-113.4107578,0.0031944444,10d 06:00:00,20d 14:45:00,1,neighbourhood,10,B1,2451.0_1,,0.0025219298,2451.0,4.0
2452.0_1_B1,,D,POLLARD MEADOWS,22 AVE-49A ST,53.45430812,-113.419284,0.0009722222,10d 06:00:00,20d 14:45:00,1,neighbourhood,10,B1,2452.0_1,,0.0007675439,2452.0,0.0
2456.0_1_B1,,D,SUMMERSIDE,20 Ave SW & 86 St SW,53.41499637,-113.4654508,0.0023611111,10d 06:00:00,20d 14:45:00,1,neighbourhood,10,B1,2456.0_1,,0.0018640351,2456.0,5.0
2461.0_1_B1,,D,LARKSPUR,SOUTH SIDE 39 AVE-BTWN 31 ST WW-WW AT,53.47421258,-113.3894636,0.00625,10d 06:00:00,20d 14:45:00,1,neighbourhood,10,B1,2461.0_1,,0.0049342105,2461.0,3.0
2462.0_1_B1,,D,KINISKI GARDENS,SOUTH SIDE 38 AVE-34 ST,53.47258659,-113.3944952,0.0023611111,10d 06:00:00,20d 14:45:00,1,neighbourhood,10,B1,2462.0_1,,0.0018640351,2462.0,3.0
2467.0_1_B1,,D,WILD ROSE,3165 - 34A Ave,53.4652597,-113.3893251,0.0544444444,10d 06:00:00,20d 14:45:00,1,neighbourhood,10,B1,2467.0_1,,0.0429824561,2467.0,3.0
2468.0_1_B1,,D,RICHFIELD,BTWN-85-91 ST-BTWN-RICHFIELD RD-38 AVE,53.47213553,-113.4626289,0.1018055556,10d 06:00:00,20d 14:45:00,1,neighbourhood,10,B1,2468.0_1,,0.080372807,2468.0,4.0
2469.0_1_B1,,D,STRATHCONA INDUSTRIAL PARK,WS/C 91 ST BTWN 34 & 39 AVE,53.46979343,-113.467082,0.0829166667,15.0d 06:00:00,15.0d 14:45:00,1,roadway,1,B1,2469.0_1,15.0,0.0654605263,2469.0,9.0
2470.0_1_B1,,D,KINISKI GARDENS,BETWEEN 3507 & 3511 - 38A AVE,53.47328478,-113.3944414,0.0023611111,10d 06:00:00,20d 14:45:00,1,neighbourhood,10,B1,2470.0_1,,0.0018640351,2470.0,3.0
2471.0_1_B1,,D,JACKSON HEIGHTS,SOUTH SIDE 44 AVE-BTWN 49 ST-WW AT JACK,53.48187979,-113.4136244,0.0163888889,10d 06:00:00,20d 14:45:00,1,neighbourhood,10,B1,2471.0_1,,0.0129385965,2471.0,5.0
2482.0_1_B1,,D,TWEDDLE PLACE,BTWN-91 ST-MILLBOURNE RD W-42A-43 AVE,53.48002448,-113.4618142,0.1179166667,10d 06:00:00,20d 14:45:00,1,neighbourhood,10,B1,2482.0_1,,0.0930921053,2482.0,6.0
2491.0_1_B1,,D,DALY GROVE,EAST SIDE MILLWOODS RD E. & 20 - 23 AVE,53.45386326,-113.4090297,0.0109722222,10d 06:00:00,20d 14:45:00,1,roadway,10,B1,2491.0_1,,0.0086622807,2491.0,1.0
2492.0_1_B1,,D,BISSET,NORTH OF 28 AVE-BTWN MILLWOODS RD-37 S,53.45955007,-113.4022907,0.0327777778,14.0d 06:00:00,14.0d 14:45:00,1,neighbourhood,1,B1,2492.0_1,14.0,0.025877193,2492.0,4.0
2499.0_1_B1,,D,RICHFIELD,WEST SIDE MILLWOODS RD BTWN 36-34 AVE,53.46599976,-113.4507729,0.0275,10d 06:00:00,20d 14:45:00,1,roadway,10,B1,2499.0_1,,0.0217105263,2499.0,8.0
2503.0_1_B1,,D,TWEDDLE PLACE,East of School: 77 St & 40 Ave,53.47648911,-113.4532758,0.0511111111,12.0d 06:00:00,12.0d 14:45:00,1,neighbourhood,1,B1,2503.0_1,12.0,0.0403508772,2503.0,0.0
2522.0_1_B1,,D,ELLERSLIE,86 St SW - SWMF - 85 St SW,53.42826686,-113.4640743,0.0058333333,10d 06:00:00,20d 14:45:00,1,neighbourhood,10,B1,2522.0_1,,0.0046052632,2522.0,6.0
2523.0_1_B1,,D,SUMMERSIDE,South of Ellerslie Road & about 88 St SW,53.42391208,-113.4669234,0.0044444444,10d 06:00:00,20d 14:45:00,1,neighbourhood,10,B1,2523.0_1,,0.0035087719,2523.0,5.0
2524.0_1_B1,,D,SUMMERSIDE,Btwn 541 & 547 Stewart Crescent,53.42373541,-113.46779,0.0044444444,10d 06:00:00,20d 14:45:00,1,neighbourhood,10,B1,2524.0_1,,0.0035087719,2524.0,7.0
2547.0_1_B1,,D,SUMMERSIDE,11 AVE SW - 66 ST,53.42369109,-113.4434532,0.0022222222,10d 06:00:00,20d 14:45:00,1,neighbourhood,10,B1,2547.0_1,,0.001754386,2547.0,5.0
2548.0_1_B1,,D,SUMMERSIDE,East of Sunset Blvd (70 St) - 11 to 12 Ave SW,53.42297683,-113.4434544,0.0055555556,10d 06:00:00,20d 14:45:00,1,neighbourhood,10,B1,2548.0_1,,0.0043859649,2548.0,4.0
2553.0_1_B1,,D,EKOTA,74 ST - 20 AVE,53.45083073,-113.4458447,0.0041666667,10d 06:00:00,20d 14:45:00,1,neighbourhood,10,B1,2553.0_1,,0.0032894737,2553.0,0.0
2562.0_1_B1,,D,WEINLOS,N/S & S/S 28 AVE: 50 ST - 48 ST,53.45941169,-113.4189058,0.0458333333,10d 06:00:00,20d 14:45:00,1,roadway,10,B1,2562.0_1,,0.0361842105,2562.0,2.0
2575.0_1_B1,,D,TWEDDLE PLACE,BTWN-MILLBOURNE RD W-91 ST-41-42 AVE,53.47785338,-113.4616282,0.0729166667,10d 06:00:00,20d 14:45:00,1,neighbourhood,10,B1,2575.0_1,,0.0575657895,2575.0,6.0
2576.0_1_B1,,D,MEYONOHK,26 AVE-78 ST,53.45717461,-113.4486804,0.0038888889,10d 06:00:00,20d 14:45:00,1,neighbourhood,10,B1,2576.0_1,,0.0030701754,2576.0,0.0
2577.0_1_B1,,D,TIPASKAN,NORTH SIDE 28 AVE BTWN 91 ST & LAKEWOO,53.45897563,-113.4631064,0.0559722222,15.0d 06:00:00,15.0d 14:45:00,1,roadway,1,B1,2577.0_1,15.0,0.0441885965,2577.0,9.0
2581.0_1_B1,,D,TIPASKAN,NORTH SIDE 28 AVE & 79 ST - MILLWOODS RD,53.45876841,-113.450742,0.0416666667,10d 06:00:00,20d 14:45:00,1,roadway,10,B1,2581.0_1,,0.0328947368,2581.0,2.0
2596.0_1_B1,,D,HILLVIEW,60 ST- 34 A AVE,53.46589914,-113.4296661,0.0056944444,10d 06:00:00,20d 14:45:00,1,neighbourhood,10,B1,2596.0_1,,0.004495614,2596.0,5.0
2597.0_1_B1,,D,HILLVIEW,65 ST- 34 A AVE,53.46598319,-113.4351038,0.0027777778,10d 06:00:00,20d 14:45:00,1,neighbourhood,10,B1,2597.0_1,,0.0021929825,2597.0,6.0
2598.0_1_B1,,D,LEE RIDGE,MILLBOURNE RD E-36A AVE-LEE RIDGE RD,53.46898911,-113.4427955,0.0384722222,10d 06:00:00,20d 14:45:00,1,neighbourhood,10,B1,2598.0_1,,0.030372807,2598.0,6.0
2601.0_1_B1,,D,RICHFIELD,ES 91 ST - 34 AVE - MILLWOODS RD SS - 87 ST,53.46998118,-113.465656,0.1981944444,10d 06:00:00,20d 14:45:00,1,roadway,10,B1,2601.0_1,,0.1564692982,2601.0,9.0
2611.0_1_B1,,D,SUMMERSIDE,570 SUMMERSIDE DRIVE,53.42291322,-113.4717312,0.0030555556,10d 06:00:00,20d 14:45:00,1,neighbourhood,10,B1,2611.0_1,,0.0024122807,2611.0,7.0
2626.0_1_B1,,D,CRAWFORD PLAINS,W/S & C 50 ST BTWN 11-13 AVE,53.44063989,-113.4187295,0.0141666667,14.0d 06:00:00,14.0d 14:45:00,1,roadway,1,B1,2626.0_1,14.0,0.0111842105,2626.0,1.0
2632.0_1_B1,,D,RICHFIELD,MILLWOODS ROAD-36 AVE,53.47026464,-113.4558261,0.0851388889,20.0d 06:00:00,20.0d 14:45:00,1,neighbourhood,1,B1,2632.0_1,20.0,0.0672149123,2632.0,4.0
2640.0_1_B1,,D,LARKSPUR,WEST OF 24 ST: BETWEEN 38 & 43A AVE,53.47847993,-113.3811779,0.0823611111,10.0d 06:00:00,10.0d 14:45:00,1,neighbourhood,1,B1,2640.0_1,10.0,0.0650219298,2640.0,0.0
2644.0_1_B1,,D,WILD ROSE,31 ST-BTWN 37A-38 AVE,53.47272278,-113.3872758,0.0144444444,10d 06:00:00,20d 14:45:00,1,neighbourhood,10,B1,2644.0_1,,0.0114035088,2644.0,0.0
2662.0_1_B1,,D,HILLVIEW,38 AVE-58 ST,53.46988154,-113.4269172,0.0927777778,14.0d 06:00:00,14.0d 14:45:00,1,neighbourhood,1,B1,2662.0_1,14.0,0.073245614,2662.0,0.0
2683.0_1_B1,,D,MEYONOHK,ES 91 ST BTWN 23 - 28 AVE,53.45531632,-113.4657287,0.0481944444,15.0d 06:00:00,15.0d 14:45:00,1,roadway,1,B1,2683.0_1,15.0,0.0380482456,2683.0,1.0
2705.0_1_B1,,D,WEINLOS,SOUTH SIDE 34 AVE BTWN 50 ST-MILLWOODS RD E,53.46433258,-113.4123796,0.10125,10d 06:00:00,20d 14:45:00,1,roadway,10,B1,2705.0_1,,0.0799342105,2705.0,
2711.0_1_B1,,D,EKOTA,E/S MILLWOODS RD: 23 AVE - 80 ST,53.4511817,-113.4484585,0.0713888889,10d 06:00:00,20d 14:45:00,1,roadway,10,B1,2711.0_1,,0.0563596491,2711.0,2.0
2731.0_1_B1,,D,WEINLOS,East of 50 St & South of 34 Ave,53.46408987,-113.4191383,0.0694444444,10d 06:00:00,20d 14:45:00,1,neighbourhood,10,B1,2731.0_1,,0.0548245614,2731.0,3.0
2738.0_1_B1,,D,MEYOKUMIN,NORTH SIDE MILLWOODS RD S-BTWN 66-50 S,53.44587358,-113.4275826,0.1013888889,10d 06:00:00,20d 14:45:00,1,roadway,10,B1,2738.0_1,,0.0800438596,2738.0,1.0
2761.0_1_B1,,D,MEYOKUMIN,WEST SIDE 50 ST BTWN MILLWOODS RD S-23,53.44946359,-113.4197467,0.1011111111,10d 06:00:00,20d 14:45:00,1,roadway,10,B1,2761.0_1,,0.0798245614,2761.0,
2811.0_1_B1,,D,SUMMERSIDE,78 ST SW: ELLERSLIE ROAD - 11 AVE SW,53.42419622,-113.4554338,0.0056944444,10d 06:00:00,20d 14:45:00,1,neighbourhood,10,B1,2811.0_1,,0.004495614,2811.0,6.0
2870.0_1_B1,,D,POLLARD MEADOWS,N/S & W/S MILL WOODS ROAD: 17 AVE - 46 ST,53.44309506,-113.4053314,0.0173611111,10d 06:00:00,20d 14:45:00,1,roadway,10,B1,2870.0_1,,0.0137061404,2870.0,
2892.0_1_B1,,D,WEINLOS,S/S & C 23 AVE: 50 ST - MILLWOODS RD E,53.45516891,-113.4144723,0.1093055556,10d 06:00:00,20d 14:45:00,1,roadway,10,B1,2892.0_1,,0.0862938596,2892.0,8.0
2904.0_1_B1,,D,POLLARD MEADOWS,48 ST - 20A AVE,53.45163922,-113.4149347,0.0013888889,10d 06:00:00,20d 14:45:00,1,neighbourhood,10,B1,2904.0_1,,0.0010964912,2904.0,0.0
2905.0_1_B1,,D,SILVER BERRY,28A AVE: 34 ST - 33 ST,53.45914151,-113.391646,0.005,10d 06:00:00,20d 14:45:00,1,roadway,10,B1,2905.0_1,,0.0039473684,2905.0,8.0
2913.0_1_B1,,D,TAWA,SOUTH SIDE/C 28 AVE BTWN 66-50 ST,53.45914321,-113.4262274,0.0452777778,10d 06:00:00,20d 14:45:00,1,roadway,10,B1,2913.0_1,,0.035745614,2913.0,9.0
2914.0_1_B1,,D,KAMEYOSEK,N/S 28 AVE: LAKEWOOD RD E - 66 ST,53.45858925,-113.439506,0.0527777778,10d 06:00:00,20d 14:45:00,1,roadway,10,B1,2914.0_1,,0.0416666667,2914.0,1.0
2915.0_1_B1,,D,KAMEYOSEK,N.S. 28 AVE BTWN PIPELINE & 66 ST,53.45856711,-113.4369712,0.0229166667,16.0d 06:00:00,16.0d 14:45:00,1,roadway,1,B1,2915.0_1,16.0,0.0180921053,2915.0,1.0
2921.0_1_B1,,D,BISSET,WEST OF 37 ST & NORTH OF 28 AVE,53.45907884,-113.3992562,0.0093055556,10.0d 06:00:00,10.0d 14:45:00,1,neighbourhood,1,B1,2921.0_1,10.0,0.0073464912,2921.0,0.0
2935.0_1_B1,,D,KAMEYOSEK,N/S 28 AVE: MILL WOODS RD - LAKEWOOD RD,53.45861646,-113.4426731,0.1184722222,10d 06:00:00,20d 14:45:00,1,roadway,10,B1,2935.0_1,,0.0935307018,2935.0,9.0
2941.0_1_B1,,D,SILVER BERRY,Silver Berry Road - 24 St,53.45788112,-113.3791822,0.0052777778,10d 06:00:00,20d 14:45:00,1,neighbourhood,10,B1,2941.0_1,,0.0041666667,2941.0,5.0
2954.0_1_B1,,D,SATOO,W/S MILL WOODS ROAD: 23 AVE - 80 ST,53.45106918,-113.4498968,0.0713888889,10d 06:00:00,20d 14:45:00,1,roadway,10,B1,2954.0_1,,0.0563596491,2954.0,2.0
2955.0_1_B1,,D,TIPASKAN,ES 91 ST BTWN 28 & 34 AVE,53.4619236,-113.465737,0.0729166667,15.0d 06:00:00,15.0d 14:45:00,1,roadway,1,B1,2955.0_1,15.0,0.0575657895,2955.0,2.0
2966.0_1_B1,,D,LARKSPUR,N/S 38 AVE: 34 ST - 17 ST,53.47495989,-113.3835263,0.0583333333,10d 06:00:00,20d 14:45:00,1,neighbourhood,10,B1,2966.0_1,,0.0460526316,2966.0,5.0
2974_1_B1,,D,KINISKI GARDENS,BTWN. 3812/3814 - 44ST.,53.47093701,-113.404104,0.0025,10d 06:00:00,20d 14:45:00,1,neighbourhood,10,B1,2974_1,,0.0019736842,2974,4.0
2975_1_B1,,D,KINISKI GARDENS,BEHIND 3814 - 44 ST TO KULAWY DRIVE,53.47167685,-113.4076796,0.0452777778,10d 06:00:00,20d 14:45:00,1,neighbourhood,10,B1,2975_1,,0.035745614,2975,3.0
3017_1_B1,,D,WILD ROSE,BETWEEN 1805 & 1809 - 35 AVE,53.4692504,-113.3698736,0.0023611111,10d 06:00:00,20d 14:45:00,1,neighbourhood,10,B1,3017_1,,0.0018640351,3017,3.0
3025_1_B1,,D,JACKSON HEIGHTS,4616-43A AVE-CONNECTS TO 44 AVE,53.48169349,-113.4117433,0.0163888889,10d 06:00:00,20d 14:45:00,1,neighbourhood,10,B1,3025_1,,0.0129385965,3025,5.0
3026_1_B1,,D,KINISKI GARDENS,WEST SIDE 44 ST-BTWN KULAWY GATE-38 AV,53.47320273,-113.4063568,0.0183333333,10d 06:00:00,20d 14:45:00,1,neighbourhood,10,B1,3026_1,,0.0144736842,3026,3.0
3041_1_B1,,D,KINISKI GARDENS,38 ST - 34 ST & Whitemud Dr - Mill Creek Ravine,53.48179332,-113.4036836,0.1902777778,10d 06:00:00,20d 14:45:00,1,neighbourhood,10,B1,3041_1,,0.1502192982,3041,3.0
3043_1_B1,,D,LEE RIDGE,NORTH SIDE 34 AVE BTWN MILLWOODS RD W-,53.46526212,-113.4434709,0.1361111111,10d 06:00:00,20d 14:45:00,1,roadway,10,B1,3043_1,,0.1074561404,3043,9.0
3044_1_B1,,D,LEE RIDGE,SS 38 AVE BTWN MILLBOURNE RD E & 66 ST,53.47414851,-113.4419587,0.0325,10d 06:00:00,20d 14:45:00,1,roadway,10,B1,3044_1,,0.0256578947,3044,
3082_1_B1,,D,LEE RIDGE,22 Ave: 52 St - 57 St,53.45314184,-113.4241951,0.0429166667,10d 06:00:00,20d 14:45:00,1,neighbourhood,10,B1,3082_1,,0.0338815789,3082,0.0
3083_1_B1,,D,SUMMERSIDE,18 Ave SW & 67 St SW,53.41806901,-113.4432599,0.0019444444,10d 06:00:00,20d 14:45:00,1,neighbourhood,10,B1,3083_1,,0.0015350877,3083,6.0
3115_1_B1,,D,MEYONOHK,SOUTH SIDE 28 AVE-BTWN 91 ST-MILLWOODS,53.45860139,-113.4568305,0.1108333333,10d 06:00:00,20d 14:45:00,1,roadway,10,B1,3115_1,,0.0875,3115,1.0
3116_1_B1,,D,LEE RIDGE,CONNECTS MILLBOURNE RD-34 AVE-71 ST,53.46680758,-113.4463967,0.0733333333,10d 06:00:00,20d 14:45:00,1,neighbourhood,10,B1,3116_1,,0.0578947368,3116,6.0
3119_1_B1,,D,MEYONOHK,NORTH SIDE 23 AVE-BTWN 91 ST-MILLWOODS,53.45249733,-113.4573378,0.1469444444,10d 06:00:00,20d 14:45:00,1,roadway,10,B1,3119_1,,0.1160087719,3119,
3122_0_1_B1,,D,SATOO,E/S 91 ST BTWN 6 - 23 AVE,53.44388492,-113.4647041,0.1866666667,14d 06:00:00,14d 14:45:00,1,roadway,1,B1,3122_1,,0.1473684211,3122,2.0
3122_1_1_B1,,D,SATOO,E/S 91 ST BTWN 6 - 23 AVE,53.44388492,-113.4647041,0.1866666667,14d 06:00:00,14d 14:45:00,1,roadway,1,B1,3122_1,,0.1473684211,3122,2.0
3127_1_B1,,D,EKOTA,WEST SIDE 66 ST BTWN MILLWOODS RD S-23,53.44975358,-113.4357751,0.1108333333,10d 06:00:00,20d 14:45:00,1,roadway,10,B1,3127_1,,0.0875,3127,9.0
3163_1_B1,,D,PARSONS INDUSTRIAL,S/S & C 34 AVE: 103 ST - 91 ST,53.4660236,-113.4753085,0.0584722222,10d 06:00:00,20d 14:45:00,1,roadway,10,B1,3163_1,,0.0461622807,3163,2.0
3170_1_B1,,D,LEE RIDGE,LEE RIDGE RD-CONNECTING 66 ST-SE CORNE,53.46715504,-113.4390903,0.0525,10d 06:00:00,20d 14:45:00,1,neighbourhood,10,B1,3170_1,,0.0414473684,3170,6.0
3183_1_B1,,D,DALY GROVE,S/S & C 23 AVE: MILL WOODS RD EAST - 38 ST,53.4546497,-113.4039146,0.085,10d 06:00:00,20d 14:45:00,1,roadway,10,B1,3183_1,,0.0671052632,3183,8.0
3196_1_B1,,D,MILL WOODS PARK,SOUTH SIDE/C 23AVE BTWN MILLWOODS RD and 66 ST,53.45344629,-113.4413081,0.0852777778,10d 06:00:00,20d 14:45:00,1,roadway,10,B1,3196_1,,0.0673245614,3196,9.0
3202_1_B1,,D,SUMMERSIDE,15 Ave SW & 78 St SW,53.42043577,-113.4567506,0.0022222222,10d 06:00:00,20d 14:45:00,1,neighbourhood,10,B1,3202_1,,0.001754386,3202,5.0
3245_1_B1,,D,KINISKI GARDENS,NORTH SIDE 38 AVE-BTWN 41-44 ST,53.4719371,-113.4023761,0.0109722222,10d 06:00:00,20d 14:45:00,1,roadway,10,B1,3245_1,,0.0086622807,3245,1.0
3276_1_B1,,D,TAWA,EAST SIDE/C 50 ST BTWN 23-34 AVE,53.45966866,-113.4205523,0.1725,10d 06:00:00,20d 14:45:00,1,roadway,10,B1,3276_1,,0.1361842105,3276,8.0
3287_1_B1,,D,CRAWFORD PLAINS,East side 50st 11-13ave,53.44112172,-113.4182118,0.0073611111,10d 06:00:00,20d 14:45:00,1,roadway,10,B1,3287_1,,0.0058114035,3287,2.0
3294_1_B1,,D,SAKAW,SOUTH SIDE MILLWOODS RD S-66-50 ST,53.44561129,-113.4285283,0.1011111111,10d 06:00:00,20d 14:45:00,1,roadway,10,B1,3294_1,,0.0798245614,3294,1.0
3313_1_B1,,D,SUMMERSIDE,Summerside Dr - 88 St,53.42007251,-113.4639724,0.1527777778,10d 06:00:00,20d 14:45:00,1,neighbourhood,10,B1,3313_1,,0.1206140351,3313,6.0
3368_1_B1,,D,ELLERSLIE,Edwards Drive-Easton Road-6 Ave SW,53.4282547,-113.4648048,0.1633333333,10d 06:00:00,20d 14:45:00,1,neighbourhood,10,B1,3368_1,,0.1289473684,3368,3.0
3377_1_B1,,D,CRAWFORD PLAINS,12 AVE-41 ST,53.44155176,-113.4052089,0.1119444444,10d 06:00:00,20d 14:45:00,1,neighbourhood,10,B1,3377_1,,0.088377193,3377,6.0
3379_1_B1,,D,WILD ROSE,2811 - 34A Ave to 2815 - 36 Ave,53.4683309,-113.3830189,0.0018055556,10d 06:00:00,20d 14:45:00,1,neighbourhood,10,B1,3379_1,,0.0014254386,3379,5.0
3399_1_B1,,D,SAKAW,EAST SIDE 66 ST BTWN 10 AVE-MILLWOODS R,53.44216099,-113.4385006,0.1301388889,10d 06:00:00,20d 14:45:00,1,roadway,10,B1,3399_1,,0.1027412281,3399,9.0
3400_1_B1,,D,MEYOKUMIN,19A AVE-57 ST/Millwoods road -56-62 ST,53.44818909,-113.4285355,0.1047222222,10d 06:00:00,20d 14:45:00,1,neighbourhood,10,B1,3400_1,,0.0826754386,3400,5.0
3405_1_B1,,D,ELLERSLIE,E/S 91 ST: 6 AVE SW - ELLERSLIE RD,53.4259758,-113.4733898,0.0175,10d 06:00:00,20d 14:45:00,1,roadway,10,B1,3405_1,,0.0138157895,3405,9.0
3416_1_B1,,D,MEYOKUMIN,E/S & C 66 ST: MILLWOODS RD S - 23 AVE,53.44906998,-113.4354028,0.0952777778,10d 06:00:00,20d 14:45:00,1,roadway,10,B1,3416_1,,0.0752192982,3416,9.0
3432_1_B1,,D,MILL WOODS GOLF COURSE,EAST SIDE/C 50 ST-BTWN 40 AVE-WHITEMUD,53.48054226,-113.417776,0.1388888889,10d 06:00:00,20d 14:45:00,1,roadway,10,B1,3432_1,,0.1096491228,3432,
3434_1_B1,,D,ELLERSLIE,319 - 83 St SW,53.42943466,-113.4581559,0.2659722222,10d 06:00:00,20d 14:45:00,1,neighbourhood,10,B1,3434_1,,0.2099780702,3434,7.0
3455_1_B1,,D,MINCHAU,EAST SIDE/WS MILLWOODS RD E BTWN 34 & 3,53.46615353,-113.407974,0.0608333333,10d 06:00:00,20d 14:45:00,1,roadway,10,B1,3455_1,,0.0480263158,3455,
10151_1_B1,,D,PARSONS INDUSTRIAL,OVERPASS MEDIAN 23 AVE: 103 ST - PARSONS ROAD,53.45383076,-113.4888193,0.0230555556,10d 06:00:00,20d 14:45:00,1,roadway,10,B1,10151_1,,0.0182017544,10151,9.0
3472_1_B1,,D,ANTHONY HENDAY SOUTHEAST,WEST SIDE 66 ST BTWN 10 AVE-MILLWOODS,53.44073551,-113.4401323,0.0194444444,10d 06:00:00,20d 14:45:00,1,roadway,10,B1,3472_1,,0.0153508772,3472,2.0
3477_1_B1,,D,EKOTA,N/S Millwoods RD S 80-66 ST,53.44635723,-113.4386971,0.0590277778,10d 06:00:00,20d 14:45:00,1,roadway,10,B1,3477_1,,0.0466008772,3477,9.0
3489_1_B1,,D,SUMMERSIDE,18 Ave SW west of 69 St,53.4179356,-113.4471177,0.0016666667,10d 06:00:00,20d 14:45:00,1,neighbourhood,10,B1,3489_1,,0.0013157895,3489,6.0
3492_1_B1,,D,BISSET,N/S 23 AVE: 38 ST - 34 ST,53.45401563,-113.3968153,0.0266666667,10d 06:00:00,20d 14:45:00,1,roadway,10,B1,3492_1,,0.0210526316,3492,
3503_1_B1,,D,PARSONS INDUSTRIAL,N/S 23 AVE: 103 ST - 91 ST,53.45317145,-113.4780852,0.1708333333,10d 06:00:00,20d 14:45:00,1,roadway,10,B1,3503_1,,0.1348684211,3503,8.0
3517_1_B1,,D,BISSET,SOUTH SIDE 34 AVE-BTWN-MILLWOODS RD E-34 St,53.46363994,-113.4001809,0.0402777778,10d 06:00:00,20d 14:45:00,1,roadway,10,B1,3517_1,,0.0317982456,3517,2.0
3526_1_B1,,D,POLLARD MEADOWS,WEST SIDE MILLWOODS RD E. BTWN SCHOO,53.45238007,-113.4092015,0.1341666667,10d 06:00:00,20d 14:45:00,1,roadway,10,B1,3526_1,,0.1059210526,3526,1.0
3532_1_B1,,D,SAKAW,W/S 50 ST BETWEEN 13 AVE & MILLWOODS RD S,53.4442439,-113.4194092,0.0456944444,10d 06:00:00,20d 14:45:00,1,roadway,10,B1,3532_1,,0.0360745614,3532,2.0
3542_1_B1,,D,LEE RIDGE,WS 66 ST: 34 AVE - 38 AVE,53.46988496,-113.438231,0.1077777778,10d 06:00:00,20d 14:45:00,1,roadway,10,B1,3542_1,,0.0850877193,3542,
3554_1_B1,,D,PARSONS INDUSTRIAL,23 AVE: PARSONS ROAD - 91 ST,53.45203938,-113.4729644,0.0922222222,10d 06:00:00,20d 14:45:00,1,roadway,10,B1,3554_1,,0.0728070175,3554,
3559_1_B1,,D,KINISKI GARDENS,38 ST-BTWN 38-41 AVE,53.47481221,-113.4007496,0.1913888889,10d 06:00:00,20d 14:45:00,1,neighbourhood,10,B1,3559_1,,0.1510964912,3559,0.0
3596_1_B1,,D,STRATHCONA INDUSTRIAL PARK,WS/C 91 ST BTWM 39 AVE & WHITEMUD DRIVE,53.47761346,-113.4671558,0.0659722222,10d 06:00:00,20d 14:45:00,1,roadway,10,B1,3596_1,,0.0520833333,3596,1.0
3604_1_B1,,D,ELLERSLIE,Between 420 & 504 - 79 St SW,53.42891973,-113.4559753,0.0020833333,10d 06:00:00,20d 14:45:00,1,neighbourhood,10,B1,3604_1,,0.0016447368,3604,6.0
3605_1_B1,,D,ELLERSLIE,Btwn 7935 & 8003 - 3 Ave SW,53.43081677,-113.4581827,0.0022222222,10d 06:00:00,20d 14:45:00,1,neighbourhood,10,B1,3605_1,,0.001754386,3605,6.0
3635_1_B1,,D,JACKSON HEIGHTS,NE CORNER OF 50 ST-40 AVE,53.47641988,-113.4156548,0.0193055556,10d 06:00:00,20d 14:45:00,1,neighbourhood,10,B1,3635_1,,0.0152412281,3635,6.0
3636_1_B1,,D,JACKSON HEIGHTS,BTWN 48 & 50 ST ALONG RAVINE,53.47821016,-113.4162094,0.0193055556,10d 06:00:00,20d 14:45:00,1,neighbourhood,10,B1,3636_1,,0.0152412281,3636,5.0
3640_1_B1,,D,MINCHAU,NORTH SIDE 38 AVE BTWN 50 ST-MILLWOODS,53.46996437,-113.4130383,0.0208333333,10d 06:00:00,20d 14:45:00,1,roadway,10,B1,3640_1,,0.0164473684,3640,8.0
3641_1_B1,,D,MINCHAU,48 ST & 37B AVE - 38 AVE,53.46969607,-113.4151357,0.0018055556,10d 06:00:00,20d 14:45:00,1,neighbourhood,10,B1,3641_1,,0.0014254386,3641,6.0
3646_1_B1,,D,TAWA,58 ST & YOUVILLE DR EAST TO POLICE STATI,53.46235135,-113.4255351,0.1727777778,10d 06:00:00,20d 14:45:00,1,neighbourhood,10,B1,3646_1,,0.1364035088,3646,3.0
3647_1_B1,,D,MILL WOODS TOWN CENTRE,55 ST-BTWN 28 AVE-25 AVE,53.45759036,-113.4246402,0.07375,10d 06:00:00,20d 14:45:00,1,neighbourhood,10,B1,3647_1,,0.0582236842,3647,0.0
3653_1_B1,,D,KINISKI GARDENS,SOUTH SIDE 38 AVE-BTWN KAASA RD E-WW A,53.47276949,-113.3957114,0.0225,10d 06:00:00,20d 14:45:00,1,roadway,10,B1,3653_1,,0.0177631579,3653,
3661_1_B1,,D,KINISKI GARDENS,W/S 44 ST: KULAWY DR N - KULAWY GATE,53.47609582,-113.4074291,0.0259722222,10d 06:00:00,20d 14:45:00,1,neighbourhood,10,B1,3661_1,,0.020504386,3661,4.0
3665_1_B1,,D,MENISA,66 ST - MILLWOODS RD.S.,53.44588015,-113.4376054,0.00375,10d 06:00:00,20d 14:45:00,1,neighbourhood,10,B1,3665_1,,0.0029605263,3665,6.0
3666_1_B1,,D,ELLERSLIE,North of Edwards Drive SW & East of 91 St SW,53.43105561,-113.4669521,0.0180555556,10d 06:00:00,20d 14:45:00,1,neighbourhood,10,B1,3666_1,,0.014254386,3666,4.0
3667_1_B1,,D,ELLERSLIE,East of 88 St SW & South of 6 Ave SW,53.42618572,-113.466953,0.0127777778,10d 06:00:00,20d 14:45:00,1,neighbourhood,10,B1,3667_1,,0.0100877193,3667,4.0
3674_1_B1,,D,MINCHAU,40 AVE-50 ST,53.47511957,-113.4147414,0.1122222222,10d 06:00:00,20d 14:45:00,1,neighbourhood,10,B1,3674_1,,0.0885964912,3674,4.0
3687_1_B1,,D,HILLVIEW,NORTH SIDE 34 AVE-66-50 ST,53.46555259,-113.4282364,0.0916666667,10d 06:00:00,20d 14:45:00,1,roadway,10,B1,3687_1,,0.0723684211,3687,
3693_1_B1,,D,POLLARD MEADOWS,NORTH SIDE MILLWOODS RD S BTWN 50-46 S,53.44525572,-113.4146298,0.0563888889,10d 06:00:00,20d 14:45:00,1,roadway,10,B1,3693_1,,0.0445175439,3693,
3702_1_B1,,D,WEINLOS,44A ST-32 AVE/44A ST-33A AVE,53.46308999,-113.4069974,0.0016666667,10d 06:00:00,20d 14:45:00,1,neighbourhood,10,B1,3702_1,,0.0013157895,3702,0.0
3705_1_B1,,D,SUMMERSIDE,Ellerslie Road & 91 St SW,53.42400853,-113.4711774,0.0745833333,10d 06:00:00,20d 14:45:00,1,neighbourhood,10,B1,3705_1,,0.0588815789,3705,5.0
3706_1_B1,,D,ELLERSLIE INDUSTRIAL,S/S Ellerslie Road: Parsons Rd - 91 St,53.424915,-113.4765264,0.0225,10d 06:00:00,20d 14:45:00,1,roadway,10,B1,3706_1,,0.0177631579,3706,9.0
3707_1_B1,,D,SUMMERSIDE,S/S Ellerslie Road: 91 St - 78 St,53.42474573,-113.4597029,0.1026388889,10d 06:00:00,20d 14:45:00,1,roadway,10,B1,3707_1,,0.0810307018,3707,9.0
3710_1_B1,,D,ELLERSLIE,75 ST N OF ELLERSLIE ROAD,53.42628752,-113.4509929,0.0127777778,10d 06:00:00,20d 14:45:00,1,neighbourhood,10,B1,3710_1,,0.0100877193,3710,6.0
3730_1_B1,,D,KINISKI GARDENS,S/S 38 AVE: KALFMAN WAY - KAASA RD EAST,53.47264669,-113.3993134,0.0091666667,10d 06:00:00,20d 14:45:00,1,roadway,10,B1,3730_1,,0.0072368421,3730,1.0
3734_1_B1,,D,MINCHAU,SOUTH SIDE 38 AVE BTWN 50 ST-MILLWOODS,53.46972731,-113.4128861,0.02625,10d 06:00:00,20d 14:45:00,1,roadway,10,B1,3734_1,,0.0207236842,3734,8.0
3751_1_B1,,D,BISSET,37 ST - 25 AVE,53.45563871,-113.396725,0.0595833333,10d 06:00:00,20d 14:45:00,1,neighbourhood,10,B1,3751_1,,0.0470394737,3751,0.0
3769_1_B1,,D,SUMMERSIDE,950 Summerside Link,53.41626438,-113.4770079,0.0011111111,10d 06:00:00,20d 14:45:00,1,neighbourhood,10,B1,3769_1,,0.000877193,3769,6.0
3780_1_B1,,D,MICHAELS PARK,WEST SIDE 66 ST BTWN 38 AVE-WHITEMUD D,53.47769273,-113.4412082,0.1030555556,10d 06:00:00,20d 14:45:00,1,roadway,10,B1,3780_1,,0.0813596491,3780,
3800_1_B1,,D,SUMMERSIDE,88 ST SW: SOUTH OF SUMMERSIDE DRIVE,53.41708962,-113.4669839,0.1019444444,10d 06:00:00,20d 14:45:00,1,neighbourhood,10,B1,3800_1,,0.0804824561,3800,5.0
3819_1_B1,,D,WILD ROSE,BETWEEN 522 & 524 WISEMAN LAND,53.47674502,-113.375906,0.0019444444,10d 06:00:00,20d 14:45:00,1,neighbourhood,10,B1,3819_1,,0.0015350877,3819,4.0
3820_1_B1,,D,WILD ROSE,38 AVE & 17 ST,53.47633057,-113.3704977,0.1513888889,10d 06:00:00,20d 14:45:00,1,neighbourhood,10,B1,3820_1,,0.1195175439,3820,3.0
3829_1_B1,,D,DALY GROVE,EAST SIDE MILLWOODS RD E. BTWN 17-20 AV,53.44864509,-113.4054258,0.0386111111,10d 06:00:00,20d 14:45:00,1,roadway,10,B1,3829_1,,0.0304824561,3829,
3846_1_B1,,D,MICHAELS PARK,BTWN MILLBOURNE RD E-66 ST,53.47997797,-113.4441735,0.1388888889,10d 06:00:00,20d 14:45:00,1,neighbourhood,10,B1,3846_1,,0.1096491228,3846,3.0
3847_1_B1,,D,MICHAELS PARK,NORTH SIDE 38 AVE BTWN 76-66 ST,53.47437214,-113.4429092,0.0505555556,10d 06:00:00,20d 14:45:00,1,roadway,10,B1,3847_1,,0.0399122807,3847,
3859_1_B1,,D,GREENVIEW,NORTH SIDE 38 AVE-BTWN-66-50 ST,53.47277571,-113.4270251,0.0581944444,10d 06:00:00,20d 14:45:00,1,roadway,10,B1,3859_1,,0.0459429825,3859,8.0
3862_1_B1,,D,WEINLOS,46 ST-25 AVE/45 ST-25 AVE,53.4564677,-113.4116522,0.0063888889,10d 06:00:00,20d 14:45:00,1,neighbourhood,10,B1,3862_1,,0.0050438596,3862,0.0
3863_1_B1,,D,SILVER BERRY,Silver Berry Road & 28A Ave,53.45818391,-113.3842628,0.0540277778,10d 06:00:00,20d 14:45:00,1,neighbourhood,10,B1,3863_1,,0.0426535088,3863,0.0
3883_1_B1,,D,TAWA,E/S & C 66 ST: 28 AVE - 34 AVE,53.46287218,-113.4348846,0.0775,10d 06:00:00,20d 14:45:00,1,roadway,10,B1,3883_1,,0.0611842105,3883,
3896_1_B1,,D,KINISKI GARDENS,S/S 38 AVE: 44 ST - KALFMAN WAY,53.47179703,-113.4023038,0.0133333333,10d 06:00:00,20d 14:45:00,1,roadway,10,B1,3896_1,,0.0105263158,3896,1.0
3897_1_B1,,D,WILD ROSE,WEST OF 23 ST: 38 AVE - 37A AVE,53.4739436,-113.3811523,0.05,10d 06:00:00,20d 14:45:00,1,neighbourhood,10,B1,3897_1,,0.0394736842,3897,5.0
3907_1_B1,,D,KINISKI GARDENS,W/S & C 34 St: 38 Ave South to Ravine,53.46893081,-113.3939601,0.0329166667,10d 06:00:00,20d 14:45:00,1,roadway,10,B1,3907_1,,0.0259868421,3907,2.0
3917_1_B1,,D,BISSET,E/S MILLWOODS RD E: 23 AVE - 34 AVE,53.46009893,-113.4071101,0.0976388889,10d 06:00:00,20d 14:45:00,1,roadway,10,B1,3917_1,,0.0770833333,3917,
3921_1_B1,,D,MILL WOODS GOLF COURSE,EAST SIDE/C 66 ST: 38 AVE-WHITEMUD DRIVE,53.47947008,-113.4412674,0.1486111111,10d 06:00:00,20d 14:45:00,1,roadway,10,B1,3921_1,,0.1173245614,3921,
3922_1_B1,,D,GREENVIEW,61 -66 ST & GRANDMEADOW CRESENT (P.P.),53.47631182,-113.4357536,0.0847222222,10d 06:00:00,20d 14:45:00,1,neighbourhood,10,B1,3922_1,,0.0668859649,3922,0.0
3923_1_B1,,D,MICHAELS PARK,NEXT TO 3931 - 67 ST,53.47617955,-113.4402655,0.0013888889,10d 06:00:00,20d 14:45:00,1,neighbourhood,10,B1,3923_1,,0.0010964912,3923,6.0
3950_1_B1,,D,EKOTA,BTWN-EKOTA-ST CLEMENTS SCHS,53.44662844,-113.4450445,0.0677777778,10d 06:00:00,20d 14:45:00,1,neighbourhood,10,B1,3950_1,,0.0535087719,3950,5.0
3951_1_B1,,D,KINISKI GARDENS,W/S 34 ST: WHITEMUD DR - 38 AVE,53.4802683,-113.3939614,0.0377777778,10d 06:00:00,20d 14:45:00,1,roadway,10,B1,3951_1,,0.0298245614,3951,
3955_1_B1,,D,WILD ROSE,East of 28 St & South of 37A Ave,53.46962439,-113.3812609,0.0077777778,10d 06:00:00,20d 14:45:00,1,neighbourhood,10,B1,3955_1,,0.0061403509,3955,5.0
3977_1_B1,,D,GREENVIEW,WEST SIDE 50 ST BTWN 38-40 AVE,53.4731319,-113.4160265,0.0402777778,10d 06:00:00,20d 14:45:00,1,roadway,10,B1,3977_1,,0.0317982456,3977,
3990_1_B1,,D,MINCHAU,N/S 34 AVE: 50 ST - MILLWOODS RD E,53.46466558,-113.4133456,0.0844444444,10d 06:00:00,20d 14:45:00,1,roadway,10,B1,3990_1,,0.0666666667,3990,
3991_1_B1,,D,KINISKI GARDENS,38 AVE/44 ST DOWN TO 34 ST,53.46820175,-113.399518,0.0830555556,10d 06:00:00,20d 14:45:00,1,neighbourhood,10,B1,3991_1,,0.0655701754,3991,0.0
3996_1_B1,,D,LEE RIDGE,MILLBOURNE RD E-LEE RIDGE RD,53.47100097,-113.4468918,0.1904166667,10d 06:00:00,20d 14:45:00,1,neighbourhood,10,B1,3996_1,,0.1503289474,3996,3.0
4013_1_B1,,D,ELLERSLIE,67 ST - 6 AVE SW,53.42720319,-113.447899,0.1713888889,10d 06:00:00,20d 14:45:00,1,neighbourhood,10,B1,4013_1,,0.1353070175,4013,0.0
4024_1_B1,,D,MINCAHU,W/S & C 34 St: Ravine South to 23 Ave,53.464567194,-113.394195219,0.0055555556,10d 06:00:00,20d 14:45:00,1,roadway,10,B1,4024_1,,0.0043859649,4024,2.0
4033_1_B1,,D,HILLVIEW,S/S 38 AVE: 66 ST - 50 ST,53.47263235,-113.4277113,0.0040277778,10d 06:00:00,20d 14:45:00,1,roadway,10,B1,4033_1,,0.0031798246,4033,8.0
4034_1_B1,,D,MINCHAU,EAST SIDE/C 50 ST 38 - 40 AVE,53.47302522,-113.4155722,0.0626388889,10d 06:00:00,20d 14:45:00,1,roadway,10,B1,4034_1,,0.0494517544,4034,
4039_1_B1,,D,KING EDWARD PARK,WEST SIDE 50 ST BTWN 28-34 AVE,53.46305567,-113.4211035,0.0948611111,10d 06:00:00,20d 14:45:00,1,roadway,10,B1,4039_1,,0.0748903509,4039,
4045_1_B1,,D,OTTEWELL,17 Ave-18A Ave & 48 St-Mill Woods Road East,53.44749477,-113.4080485,0.16125,10d 06:00:00,20d 14:45:00,1,neighbourhood,10,B1,4045_1,,0.1273026316,4045,4.0
4047_1_B1,,D,POLLARD MEADOWS,79 -84 ST & 28 - 30 AVE,53.4614612,-113.455742,0.0601388889,10d 06:00:00,20d 14:45:00,1,neighbourhood,10,B1,4047_1,,0.0474780702,4047,6.0
4048_1_B1,,D,DALY GROVE,1888 - 37 ST,53.44873644,-113.4006682,0.1204166667,10d 06:00:00,20d 14:45:00,1,neighbourhood,10,B1,4048_1,,0.0950657895,4048,0.0
4067_1_B1,,D,SUMMERSIDE,14 Ave SW & 82 St SW,53.42083735,-113.45816,0.0447222222,10d 06:00:00,20d 14:45:00,1,neighbourhood,10,B1,4067_1,,0.0353070175,4067,5.0
4081_1_B1,,D,SATOO,SOUTH SIDE&C 23 AVE-BTWN 85 ST-MILLWOO,53.45243671,-113.4541011,0.0816666667,10d 06:00:00,20d 14:45:00,1,roadway,10,B1,4081_1,,0.0644736842,4081,2.0
4082_1_B1,,D,CRAWFORD PLAINS,E/S & C 50 ST BTWN 13 AVE-MILLWOODS RD S,53.44377569,-113.4187286,0.0491666667,10d 06:00:00,20d 14:45:00,1,roadway,10,B1,4082_1,,0.0388157895,4082,
4098_1_B1,,D,JACKSON HEIGHTS,JACKSON RD.-BOTH SIDES-44AVE TO PIPELIN,53.48345561,-113.4077461,0.0147222222,10d 06:00:00,20d 14:45:00,1,neighbourhood,10,B1,4098_1,,0.011622807,4098,4.0
4118_1_B1,,D,JACKSON HEIGHTS,WESTSIDE/EAST SIDE 44 ST: JACKSON RD - P,53.48073488,-113.4098485,0.0591666667,10d 06:00:00,20d 14:45:00,1,neighbourhood,10,B1,4118_1,,0.0467105263,4118,5.0
4119_1_B1,,D,SUMMERSIDE,Stanton Dr - 67 St,53.42041418,-113.4437069,0.005,10d 06:00:00,20d 14:45:00,1,neighbourhood,10,B1,4119_1,,0.0039473684,4119,0.0
4120_1_B1,,D,HILLVIEW,WEST SIDE OF 50 ST: 34 Ave - 38 Ave,53.46764427,-113.4186163,0.0647222222,10d 06:00:00,20d 14:45:00,1,roadway,10,B1,4120_1,,0.0510964912,4120,
4122_1_B1,,D,LARKSPUR,43A AVE: 27 - 30 ST,53.47978351,-113.3847698,0.2338888889,10d 06:00:00,20d 14:45:00,1,neighbourhood,10,B1,4122_1,,0.1846491228,4122,3.0
4157_1_B1,,D,MILL WOODS TOWN CENTRE,EAST SIDE & CENTER 66 ST: BTWN 23-28 AVE,53.45573299,-113.4345074,0.0230555556,10d 06:00:00,20d 14:45:00,1,roadway,10,B1,4157_1,,0.0182017544,4157,1.0
4162_1_B1,,D,LARKSPUR,21 ST: 38 AVE - 43A AVE - SWMF,53.47922173,-113.3770148,0.0172222222,10d 06:00:00,20d 14:45:00,1,neighbourhood,10,B1,4162_1,,0.0135964912,4162,5.0
4165_1_B1,,D,WILD ROSE,23 ST & 37A AVE,53.47135276,-113.3787691,0.1155555556,10d 06:00:00,20d 14:45:00,1,neighbourhood,10,B1,4165_1,,0.0912280702,4165,3.0
4177_1_B1,,D,TWEDDLE PLACE,Millbourned Road West & 40 Ave,53.47576909,-113.4545088,0.0511111111,10d 06:00:00,20d 14:45:00,1,neighbourhood,10,B1,4177_1,,0.0403508772,4177,6.0
4186_1_B1,,D,JACKSON HEIGHTS,JAMHA ROAD & JACKSON ROAD,53.48343111,-113.4072579,0.0623611111,10d 06:00:00,20d 14:45:00,1,neighbourhood,10,B1,4186_1,,0.0492324561,4186,4.0
4194_1_B1,,D,WILD ROSE,34 St South of 35A Ave East to park,53.46573497,-113.3847335,0.0251388889,10d 06:00:00,20d 14:45:00,1,neighbourhood,10,B1,4194_1,,0.0198464912,4194,5.0
4199_1_B1,,D,MENISA,S/S Millwoods RD S 80-66 ST,53.44586932,-113.4440476,0.0590277778,10d 06:00:00,20d 14:45:00,1,roadway,10,B1,4199_1,,0.0466008772,4199,1.0
4204_1_B1,,D,TAWA,SOUTH SIDE/C 34 AVE-BTWN-66-50 ST,53.46524425,-113.4282146,0.1316666667,10d 06:00:00,20d 14:45:00,1,roadway,10,B1,4204_1,,0.1039473684,4204,
4211_1_B1,,D,HILLVIEW,66 ST-SCHOOL-37-38 AVE,53.47283181,-113.4326882,0.1298611111,10d 06:00:00,20d 14:45:00,1,neighbourhood,10,B1,4211_1,,0.1025219298,4211,5.0
4221_1_B1,,D,KAMEYOSEK,WEST SIDE 66 ST BTWN 28-34 AVE,53.46307087,-113.4353435,0.0775,10d 06:00:00,20d 14:45:00,1,roadway,10,B1,4221_1,,0.0611842105,4221,
4259_1_B1,,D,KINISKI GARDENS,44 ST-39 AVE,53.47452958,-113.4056587,0.1361111111,10d 06:00:00,20d 14:45:00,1,neighbourhood,10,B1,4259_1,,0.1074561404,4259,4.0
4260_1_B1,,D,WEINLOS,W/S MILL WOODS RD EAST: 23 AVE - 34 AVE,53.4598939,-113.4075201,0.1666666667,10d 06:00:00,20d 14:45:00,1,roadway,10,B1,4260_1,,0.1315789474,4260,1.0
4267_1_B1,,D,BISSET,37 ST-33 AVE,53.46154834,-113.4005705,0.1836111111,10d 06:00:00,20d 14:45:00,1,neighbourhood,10,B1,4267_1,,0.1449561404,4267,4.0
4278_1_B1,,D,STRATHCONA INDUSTRIAL PARK,WEST SIDE OF 97 ST NORTH OF 35 AVE - 39 A,53.47206006,-113.4796731,0.0468055556,10d 06:00:00,20d 14:45:00,1,neighbourhood,10,B1,4278_1,,0.0369517544,4278,5.0
4294_1_B1,,D,WEINLOS,48 ST & 28 AVE,53.46097016,-113.4141569,0.1477777778,10d 06:00:00,20d 14:45:00,1,neighbourhood,10,B1,4294_1,,0.1166666667,4294,4.0
4322_1_B1,,D,KAMEYOSEK,31 -32 AVE & LAKEWOOD RD. EAST - 66 ST,53.46294353,-113.438757,0.06625,10d 06:00:00,20d 14:45:00,1,neighbourhood,10,B1,4322_1,,0.0523026316,4322,5.0
4328_1_B1,,D,MEYONOHK,79 ST-LAKEWOOD RD S,53.45529188,-113.4558291,0.1027777778,10d 06:00:00,20d 14:45:00,1,neighbourhood,10,B1,4328_1,,0.0811403509,4328,4.0
4331_1_B1,,D,ELLERSLIE,EAST OF 75 ST SW & NORTH OF 7 AVE SW,53.42781177,-113.44932,0.0120833333,10d 06:00:00,20d 14:45:00,1,neighbourhood,10,B1,4331_1,,0.0095394737,4331,6.0
4341_1_B1,,D,KINISKI GARDENS,41 AVE-41 ST,53.47838217,-113.4062629,0.1618055556,10d 06:00:00,20d 14:45:00,1,neighbourhood,10,B1,4341_1,,0.1277412281,4341,3.0
4343_1_B1,,D,TAMARACK,WHITEMUD DRIVE : 17 ST. TO ROW,53.481596395,-113.365765607,0.2233333333,10d 06:00:00,20d 14:45:00,1,roadway,10,B1,4343_1,,0.1763157895,4343,
4344_1_B1,,D,BISSET,W/S & C 34 St: 34 Ave - 23 Ave,53.45868909,-113.3941215,0.2311111111,10d 06:00:00,20d 14:45:00,1,roadway,10,B1,4344_1,,0.1824561404,4344,
4362_1_B1,,D,GREENVIEW,50-54 ST & 38-39 A AVE,53.47265947,-113.4182492,0.1781944444,10d 06:00:00,20d 14:45:00,1,neighbourhood,10,B1,4362_1,,0.1406798246,4362,4.0
4365_1_B1,,D,RICHFIELD,SOUTH SIDE/C 34 AVE-91 ST-MILLWOODS RD,53.46504899,-113.4592898,0.125,10d 06:00:00,20d 14:45:00,1,roadway,10,B1,4365_1,,0.0986842105,4365,
4366_1_B1,,D,TIPASKAN,WEST SIDE MILLWOODS RD-BTWN-34-28 AVE,53.46348934,-113.4506085,0.0294444444,10d 06:00:00,20d 14:45:00,1,roadway,10,B1,4366_1,,0.023245614,4366,8.0
4411_1_B1,,D,DALY GROVE,39 ST-17A-17B AVE,53.4474203,-113.401979,0.01125,10d 06:00:00,20d 14:45:00,1,neighbourhood,10,B1,4411_1,,0.0088815789,4411,5.0
4423_1_B1,,D,EKOTA,MW RD S-75 ST/ES OF SCHOOL,53.44656424,-113.4479371,0.0827777778,10d 06:00:00,20d 14:45:00,1,neighbourhood,10,B1,4423_1,,0.0653508772,4423,5.0
4427_1_B1,,D,KAMEYOSEK,LAKEWOOD RD E - 31 AVE,53.46125892,-113.4432301,0.1191666667,10d 06:00:00,20d 14:45:00,1,neighbourhood,10,B1,4427_1,,0.0940789474,4427,6.0
4428_1_B1,,D,BISSET,39 ST-26 AVE/41 ST-BTWN-26-28 AVE,53.45748528,-113.4011287,0.0673611111,10d 06:00:00,20d 14:45:00,1,neighbourhood,10,B1,4428_1,,0.0531798246,4428,0.0
4438_1_B1,,D,TAMARACK,1567-37C Ave to 1566-37B Ave,53.47413679,-113.3674046,0.0019444444,10d 06:00:00,20d 14:45:00,1,neighbourhood,10,B1,4438_1,,0.0015350877,4438,4.0
4443_1_B1,,D,PARSONS INDUSTRIAL,28 Ave: Parsons Road (99 St) - 91 St,53.45879988,-113.475642,0.0361111111,10d 06:00:00,20d 14:45:00,1,roadway,10,B1,4443_1,,0.0285087719,4443,1.0
4471_1_B1,,D,TAMARACK,Tamarack Green - 12 St,53.46908585,-113.3606443,0.0827777778,10d 06:00:00,20d 14:45:00,1,neighbourhood,10,B1,4471_1,,0.0653508772,4471,5.0
4479_1_B1,,D,SOUTH EDMONTON COMMON,W/S PARSONS ROAD: SOUTH OF 23 AVE - 99 S,53.45126348,-113.4798138,0.0026388889,10d 06:00:00,20d 14:45:00,1,neighbourhood,10,B1,4479_1,,0.0020833333,4479,4.0
4482_1_B1,,D,POLLARD MEADOWS,E/S & C 50 St: Mill Woods Road South - 23 Ave,53.44998974,-113.4193237,0.0955555556,10d 06:00:00,20d 14:45:00,1,roadway,10,B1,4482_1,,0.0754385965,4482,9.0
4483_1_B1,,D,MINCHAU,EAST SIDE/C 50 ST BTWN 34 & 38 AVE,53.46759607,-113.4181133,0.0533333333,10d 06:00:00,20d 14:45:00,1,roadway,10,B1,4483_1,,0.0421052632,4483,
4484_1_B1,,D,KAMEYOSEK,66 ST-28 AVE/67 ST-29 AVE,53.45991271,-113.4365959,0.1294444444,10d 06:00:00,20d 14:45:00,1,neighbourhood,10,B1,4484_1,,0.1021929825,4484,5.0
4485_1_B1,,D,LEE RIDGE,E/S & C 66 ST: 34 AVE - 38 AVE,53.46980168,-113.4376774,0.1536111111,10d 06:00:00,20d 14:45:00,1,roadway,10,B1,4485_1,,0.1212719298,4485,8.0
4486_1_B1,,D,HILLVIEW,65-66 ST & 34 A AVE-34 B AVE,53.4675571,-113.4362539,0.0098611111,10d 06:00:00,20d 14:45:00,1,neighbourhood,10,B1,4486_1,,0.0077850877,4486,5.0
4497_1_B1,,D,CHARLESWORTH,1A Ave SW: 63 St SW - 64 St SW,53.4319747,-113.4386005,0.0020833333,10d 06:00:00,20d 14:45:00,1,neighbourhood,10,B1,4497_1,,0.0016447368,4497,0.0
4500_1_B1,,D,TAMARACK,31 Ave: 15 - 17 St,53.47245777,-113.3668353,0.0256944444,10d 06:00:00,20d 14:45:00,1,neighbourhood,10,B1,4500_1,,0.0202850877,4500,4.0
4523_1_B1,,D,SILVER BERRY,33 Ave North of Silver Berry Road,53.46398378,-113.3861565,0.0645833333,10d 06:00:00,20d 14:45:00,1,neighbourhood,10,B1,4523_1,,0.0509868421,4523,3.0
4527_1_B1,,D,SUMMERSIDE,Beside 2116 - 69 Street SW,53.41378883,-113.4466585,0.0026388889,10d 06:00:00,20d 14:45:00,1,neighbourhood,10,B1,4527_1,,0.0020833333,4527,6.0
4531_1_B1,,D,CHARLESWORTH,66 St SW & 2 Ave SW,53.429125,-113.4404401,0.0390277778,10d 06:00:00,20d 14:45:00,1,neighbourhood,10,B1,4531_1,,0.0308114035,4531,0.0
4532_1_B1,,D,WILD ROSE,3225 - 35 A Ave,53.46712332,-113.3923492,0.0201388889,10d 06:00:00,20d 14:45:00,1,neighbourhood,10,B1,4532_1,,0.0158991228,4532,0.0
4533_1_B1,,D,TAMARACK,East Side & Center 17 St: Whitemud Drive - 34 Av,53.4764141,-113.3685041,0.0495833333,10d 06:00:00,20d 14:45:00,1,roadway,10,B1,4533_1,,0.0391447368,4533,
4534_1_B1,,D,SILVER BERRY,2127 - 32 Ave,53.461967,-113.3731107,0.0015277778,10d 06:00:00,20d 14:45:00,1,neighbourhood,10,B1,4534_1,,0.0012061404,4534,5.0
4535_1_B1,,D,SILVER BERRY,BETWEEN 614 & 618 SILVER BERRY ROAD,53.461984,-113.3880859,0.0016666667,10d 06:00:00,20d 14:45:00,1,neighbourhood,10,B1,4535_1,,0.0013157895,4535,0.0
4536_1_B1,,D,SILVER BERRY,3244 - 28A AVE,53.46087204,-113.3901401,0.2705555556,10d 06:00:00,20d 14:45:00,1,neighbourhood,10,B1,4536_1,,0.2135964912,4536,3.0
4538_1_B1,,D,GREENVIEW,38 AVE-58 ST,53.47530033,-113.427371,0.2083333333,10d 06:00:00,20d 14:45:00,1,neighbourhood,10,B1,4538_1,,0.1644736842,4538,3.0
4540_1_B1,,D,SILVER BERRY,SILVER BERRY RD EAST OF 34 ST,53.46289366,-113.3914545,0.0805555556,10d 06:00:00,20d 14:45:00,1,neighbourhood,10,B1,4540_1,,0.0635964912,4540,0.0
4543_1_B1,,D,CHARLESWORTH,ELLERSLIE ROAD-66 ST,53.42636695,-113.4405375,0.0568055556,10d 06:00:00,20d 14:45:00,1,neighbourhood,10,B1,4543_1,,0.0448464912,4543,0.0
4544_1_B1,,D,SUMMERSIDE,19A ave east of 68A Street,53.41653559,-113.4474357,0.0019444444,10d 06:00:00,20d 14:45:00,1,neighbourhood,10,B1,4544_1,,0.0015350877,4544,5.0
4545_1_B1,,D,RICHFIELD,SOUTH SIDE MILLWOODS RD-87 ST-36 AVE,53.47373454,-113.4586951,0.0544444444,10d 06:00:00,20d 14:45:00,1,roadway,10,B1,4545_1,,0.0429824561,4545,1.0
4554_1_B1,,D,ELLERSLIE,66 St Ellerslie to 2 AVE,53.42793174,-113.4427959,0.0180555556,10d 06:00:00,20d 14:45:00,1,roadway,10,B1,4554_1,,0.014254386,4554,9.0
4572_1_B1,,D,SATOO,KNOTTWOOD ROAD W-17 AVE,53.44613593,-113.4576249,0.0763888889,10d 06:00:00,20d 14:45:00,1,neighbourhood,10,B1,4572_1,,0.0603070175,4572,5.0
4573_1_B1,,D,SUMMERSIDE,N & S 17 Ave SW east of 85 St SW,53.4176732,-113.462886,0.0256944444,10d 06:00:00,20d 14:45:00,1,neighbourhood,10,B1,4573_1,,0.0202850877,4573,5.0
4574_1_B1,,D,SILVER BERRY,33B Ave: 17 St - 23 St,53.46510533,-113.3718019,0.0484722222,10d 06:00:00,20d 14:45:00,1,neighbourhood,10,B1,4574_1,,0.0382675439,4574,3.0
4579_1_B1,,D,SUMMERSIDE,Savaryn Drive: 22 Ave SW- Summerside Link,53.41302714,-113.4665714,0.0256944444,10d 06:00:00,20d 14:45:00,1,neighbourhood,10,B1,4579_1,,0.0202850877,4579,5.0
4581_1_B1,,D,SUMMERSIDE,Savaryn Drive & Summerside Link,53.41291999,-113.4775009,0.0420833333,10d 06:00:00,20d 14:45:00,1,neighbourhood,10,B1,4581_1,,0.0332236842,4581,5.0
4584_1_B1,,D,SILVER BERRY,E/S 34 ST: RAVINE SOUTH TO 23 AVE,53.46076594,-113.393563,0.2288888889,10d 06:00:00,20d 14:45:00,1,roadway,10,B1,4584_1,,0.1807017544,4584,8.0
4644_1_B1,,D,ELLERSLIE,E/S 91 St: Edwards Drive - Easton Road,53.4289211,-113.4718033,0.0515277778,10d 06:00:00,20d 14:45:00,1,roadway,10,B1,4644_1,,0.0406798246,4644,2.0
4650_1_B1,,D,WEINLOS,N/S 23 AVE: 50ST - MILLWOODS RD E,53.45546733,-113.4144299,0.0375,10d 06:00:00,20d 14:45:00,1,roadway,10,B1,4650_1,,0.0296052632,4650,1.0
4673_1_B1,,D,CHARLESWORTH,"60 Street, North of 7th Ave",53.4268006,-113.4323974,0.0202777778,10d 06:00:00,20d 14:45:00,1,neighbourhood,10,B1,4673_1,,0.0160087719,4673,5.0
4674_1_B1,,D,CHARLESWORTH,503 - 59 St SW (5805 - 3 AVE),53.42917856,-113.4315572,0.0395833333,10d 06:00:00,20d 14:45:00,1,neighbourhood,10,B1,4674_1,,0.03125,4674,6.0
4675_1_B1,,D,SUMMERSIDE,Stanton Drive west of 69 St SW,53.42051191,-113.4482786,0.0094444444,10d 06:00:00,20d 14:45:00,1,neighbourhood,10,B1,4675_1,,0.0074561404,4675,6.0
4682_1_B1,,D,SILVER BERRY,South of 32 Ave & East of Silver Berry Road,53.46152714,-113.3758157,0.0241666667,10d 06:00:00,20d 14:45:00,1,neighbourhood,10,B1,4682_1,,0.0190789474,4682,3.0
4685_1_B1,,D,SUMMERSIDE,Sunset Blvd (70 St) - Ellerslie Rd,53.42394909,-113.4492492,0.0684722222,10d 06:00:00,20d 14:45:00,1,neighbourhood,10,B1,4685_1,,0.0540570175,4685,6.0
4688_1_B1,,D,PYLYPOW INDUSTRIAL,51 Avenue: 47 Street,53.4880411,-113.4121271,0.1188888889,10d 06:00:00,20d 14:45:00,1,roadway,10,B1,4688_1,,0.0938596491,4688,
4689_1_B1,,D,ELLERSLIE INDUSTRIAL,91 ST E/W Parsons Rd - 25 Avenue,53.41468495,-113.4813885,0.1334722222,10d 06:00:00,20d 14:45:00,1,roadway,10,B1,4689_1,,0.105372807,4689,
4696_1_B1,,D,CHARLESWORTH,3 Ave SW/ 62 St SW: 4 Ave SW - 61 St SW,53.42930261,-113.4358491,0.0026388889,10d 06:00:00,20d 14:45:00,1,neighbourhood,10,B1,4696_1,,0.0020833333,4696,0.0
4708_1_B1,,D,WALKER,66 St SW & Ellerslie Road,53.42376245,-113.4408112,0.0569444444,10d 06:00:00,20d 14:45:00,1,neighbourhood,10,B1,4708_1,,0.0449561404,4708,0.0
4709_1_B1,,D,CHARLESWORTH,55 St SW & 3 Ave SW (5607 3 AVE),53.42802726,-113.4296006,0.0366666667,10d 06:00:00,20d 14:45:00,1,neighbourhood,10,B1,4709_1,,0.0289473684,4709,5.0
4723_1_B1,,D,SUMMERSIDE,Beside 2021 69A St SW,53.41585222,-113.4470071,0.0075,10d 06:00:00,20d 14:45:00,1,neighbourhood,10,B1,4723_1,,0.0059210526,4723,5.0
4724_1_B1,,D,SUMMERSIDE,Beside 2117 - 69A St SW,53.41378521,-113.4473176,0.0023611111,10d 06:00:00,20d 14:45:00,1,neighbourhood,10,B1,4724_1,,0.0018640351,4724,5.0
4725_1_B1,,D,SUMMERSIDE,70 St SW & 16 Ave SW - 21 Ave SW,53.41780384,-113.451045,0.1258333333,10d 06:00:00,20d 14:45:00,1,neighbourhood,10,B1,4725_1,,0.0993421053,4725,5.0
4730_1_B1,,D,SUMMERSIDE,Shaw Way: 66 Street SW - 70 Street SW,53.4144707,-113.4446813,0.0241666667,10d 06:00:00,20d 14:45:00,1,neighbourhood,10,B1,4730_1,,0.0190789474,4730,6.0
4767_1_B1,,D,PYLYPOW INDUSTRIAL,"47 - 50 St, between 52 & 55 Ave",53.49034044,-113.4155408,0.0986111111,10d 06:00:00,20d 14:45:00,1,neighbourhood,10,B1,4767_1,,0.0778508772,4767,5.0
4841_1_B1,,D,SUMMERSIDE,10 Ave SW & 76 St SW,53.4242913,-113.4526007,0.0013888889,10d 06:00:00,20d 14:45:00,1,neighbourhood,10,B1,4841_1,,0.0010964912,4841,6.0
4861_1_B1,,D,SUMMERSIDE,21 A Ave SW & 69 St SW,53.4133837,-113.4469886,0.0013888889,10d 06:00:00,20d 14:45:00,1,neighbourhood,10,B1,4861_1,,0.0010964912,4861,5.0
5321_1_B1,,D,Summerside,Orchards Gate SW & Orchards Dr SW,53.40736169,-113.4741846,0.0230555556,10d 06:00:00,20d 14:45:00,1,neighbourhood,10,B1,5321_1,,0.0182017544,5321,6.0
5322_1_B1,,D,THE ORCHARDS AT ELLERSLIE,25 Ave SW: 90 St - 91 St,53.41026169,-113.4784126,0.0706944444,10d 06:00:00,20d 14:45:00,1,roadway,10,B1,5322_1,,0.0558114035,5322,
5323_1_B1,,D,SUMMERSIDE,25 Ave SW & Orchards Gate,53.40983397,-113.4709706,0.0159722222,10d 06:00:00,20d 14:45:00,1,neighbourhood,10,B1,5323_1,,0.0126096491,5323,4.0
5341_1_B1,,D,TAMARACK,Tamarack Way NW: 17 St - Maple Road,53.47848138,-113.36515,0.0294444444,10d 06:00:00,20d 14:45:00,1,neighbourhood,10,B1,5341_1,,0.023245614,5341,4.0
5565_1_B1,,D,WILD ROSE,34 ave 21 st NW,53.46643817,-113.3751525,0.0219444444,10d 06:00:00,20d 14:45:00,1,neighbourhood,10,B1,5565_1,,0.0173245614,5565,3.0
5585_1_B1,,D,CHARLESWORTH,"Between 60 St & 61 St, just north of 7 Ave SW (From #631 to #624 60 Street)",53.42680219,-113.4341983,0.0068055556,10d 06:00:00,20d 14:45:00,1,neighbourhood,10,B1,5585_1,,0.005372807,5585,5.0
5587_1_B1,,D,CHARLESWORTH,58 St & 8 Ave SW TO ELLERSLIE RD,53.42534985,-113.4308597,0.0020833333,10d 06:00:00,20d 14:45:00,1,neighbourhood,10,B1,5587_1,,0.0016447368,5587,5.0
5588_1_B1,,D,CHARLESWORTH,"5 Ave SW, west of 62 St",53.42823317,-113.4378371,0.0158333333,10d 06:00:00,20d 14:45:00,1,neighbourhood,10,B1,5588_1,,0.0125,5588,0.0
5589_1_B1,,D,CHARLESWORTH,"5 Ave SW, west of 62 St",53.42871834,-113.43452,0.03875,10d 06:00:00,20d 14:45:00,1,neighbourhood,10,B1,5589_1,,0.0305921053,5589,0.0
5605_1_B1,,D,SILVER BERRY,33A Ave & 23 St,53.46481986,-113.3749259,0.0018055556,10d 06:00:00,20d 14:45:00,1,neighbourhood,10,B1,5605_1,,0.0014254386,5605,5.0
5606_1_B1,,D,CHARLESWORTH,62 St: 6 Ave SW - 7 Ave SW,53.42705076,-113.436414,0.0026388889,10d 06:00:00,20d 14:45:00,1,neighbourhood,10,B1,5606_1,,0.0020833333,5606,0.0
5628_1_B1,,D,WALKER,Between 1007 & 1015 - 59 Street,53.42419737,-113.4307201,0.0027777778,10d 06:00:00,20d 14:45:00,1,neighbourhood,10,B1,5628_1,,0.0021929825,5628,4.0
5645_1_B1,,D,WALKER,Between Watt Blvd SW and 10 Ave SW,53.42439273,-113.4358805,0.0015277778,10d 06:00:00,20d 14:45:00,1,neighbourhood,10,B1,5645_1,,0.0012061404,5645,5.0
5646_1_B1,,D,WALKER,Between 6420 &1606 - 65 Street,53.42029789,-113.4420533,0.0038888889,10d 06:00:00,20d 14:45:00,1,neighbourhood,10,B1,5646_1,,0.0030701754,5646,4.0
5647_1_B1,,D,WALKER,"61 St - 66 St, south of 18 Ave SW",53.417604002,-113.439359851,0.0345833333,10d 06:00:00,20d 14:45:00,1,neighbourhood,10,B1,5647_1,,0.0273026316,5647,6.0
5665_1_B1,,D,WALKER,Between 5939 & 1311 - 60 Street,53.42176383,-113.432761,0.0022222222,10d 06:00:00,20d 14:45:00,1,neighbourhood,10,B1,5665_1,,0.001754386,5665,4.0
5685_1_B1,,D,WALKER,South Side Welsh Dr : 66 Street to 63 Street,53.42045947,-113.4406084,0.0155555556,10d 06:00:00,20d 14:45:00,1,neighbourhood,10,B1,5685_1,,0.0122807018,5685,0.0
5705_1_B1,,D,WALKER,Watt Blvd SW: Watt Promenade - Welsh Dr,53.42043288,-113.4345884,0.0081944444,10d 06:00:00,20d 14:45:00,1,neighbourhood,10,B1,5705_1,,0.0064692982,5705,4.0
5725_1_B1,,D,SILVER BERRY,N-side 23 Ave NW: 17 St - 34 St,53.45410051,-113.3852782,0.0840277778,10d 06:00:00,20d 14:45:00,1,roadway,10,B1,5725_1,,0.0663377193,5725,
5825_1_B1,,D,SUMMERSIDE,Summerside Grande Blvd SW: 77 St - 80 St,53.417601804,-113.45842712,0.0106944444,10d 06:00:00,20d 14:45:00,1,neighbourhood,10,B1,5825_1,,0.0084429825,5825,5.0
5845_1_B1,,D,WALKER,66 St: 21 Ave SW to Ellerslie Rd,53.417599851,-113.442478953,0.0343055556,10d 06:00:00,20d 14:45:00,1,roadway,10,B1,5845_1,,0.0270833333,5845,
6186_1_B1,,D,SUMMERSIDE,Beside 6931 - 14 Ave SW,53.4206945,-113.4483114,0.0018055556,10d 06:00:00,20d 14:45:00,1,neighbourhood,10,B1,6186_1,,0.0014254386,6186,6.0
6237_1_B1,,D,SILVER BERRY,W-side 32 St: 25 Ave NW - Silver Berry Rd NW,53.45623448,-113.3863172,0.0043055556,10d 06:00:00,20d 14:45:00,1,neighbourhood,10,B1,6237_1,,0.0033991228,6237,5.0
6246_1_B1,,D,SUMMERSIDE,"80 St, south of 18 Ave SW",53.41550875,-113.4595765,0.0022222222,10d 06:00:00,20d 14:45:00,1,neighbourhood,10,B1,6246_1,,0.001754386,6246,5.0
6250_1_B1,,D,SUMMERSIDE,90 St & 23 Ave SW,53.41169516,-113.4724155,0.0251388889,10d 06:00:00,20d 14:45:00,1,neighbourhood,10,B1,6250_1,,0.0198464912,6250,5.0
6286_1_B1,,D,LAUREL,"East of 28 St, near 20 Ave NW",53.450518786,-113.381810411,0.1073611111,10d 06:00:00,20d 14:45:00,1,neighbourhood,10,B1,6286_1,,0.0847587719,6286,6.0
6331_1_B1,,D,CHARLESWORTH,3 Ave SW: 54 St - 60 St,53.43017149,-113.4296246,0.0201388889,10d 06:00:00,20d 14:45:00,1,neighbourhood,10,B1,6331_1,,0.0158991228,6331,5.0
6332_1_B1,,D,Charlesworth,1A Ave SW connecting 53 St to 54 St SW,53.43162314,-113.4244492,0.0029166667,10d 06:00:00,20d 14:45:00,1,neighbourhood,10,B1,6332_1,,0.0023026316,6332,4.0
6333_1_B1,,D,CHARLESWORTH,55 St & 1A Ave,53.43198103,-113.4273697,0.0020833333,10d 06:00:00,20d 14:45:00,1,neighbourhood,10,B1,6333_1,,0.0016447368,6333,5.0
6390_1_B1,,D,LAUREL,33B St & 19 Ave NW,53.449379997,-113.392729,0.0034722222,10d 06:00:00,20d 14:45:00,1,neighbourhood,10,B1,6390_1,,0.0027412281,6390,6.0
6391_1_B1,,D,LAUREL,33 St & 20 Ave NW,53.45016563,-113.3893259,0.0031944444,10d 06:00:00,20d 14:45:00,1,neighbourhood,10,B1,6391_1,,0.0025219298,6391,6.0
6392_1_B1,,D,LAUREL,33A St & 21A Ave NW,53.45225746,-113.3913859,0.0009722222,10d 06:00:00,20d 14:45:00,1,neighbourhood,10,B1,6392_1,,0.0007675439,6392,6.0
6410_1_B1,,D,LAUREL,32 St & 19 Ave NW,53.44948785,-113.3867636,0.0036111111,10d 06:00:00,20d 14:45:00,1,neighbourhood,10,B1,6410_1,,0.0028508772,6410,6.0
6430_1_B1,,D,LAUREL,16A Ave: 32 St - 34St,53.4437034,-113.392917,0.0136111111,10d 06:00:00,20d 14:45:00,1,neighbourhood,10,B1,6430_1,,0.010745614,6430,5.0
